<?xml version="1.0" encoding="utf-8" standalone="no"?>
<root>
	<arrondissement num ="75001">
		<element id="0" type="bar">
			<latitude>48.8579257</latitude>
			<longitude>2.3463544</longitude>
			<adresse>Avenue Victoria, St-Germain-l'Auxerrois, 1er</adresse>
			<nom>Les Arènes</nom>
		</element>
		<element id="1" type="bar">
			<latitude>48.8616362</latitude>
			<longitude>2.3492126</longitude>
			<adresse>Boulevard de Sébastopol, Les Halles, 1er</adresse>
			<nom>Pop In</nom>
		</element>
		<element id="2" type="bar">
			<latitude>48.861037</latitude>
			<longitude>2.3488844</longitude>
			<adresse>Rue Saint-Denis, Les Halles, 1er</adresse>
			<nom>Hall's Beer Tavern</nom>
		</element>
	</arrondissement>
	<arrondissement num ="75002">
		<element id="0" type="bar">
			<latitude>48.8693141</latitude>
			<longitude>2.3323713</longitude>
			<adresse>4, Rue Daunou, Gaillon, 2e</adresse>
			<nom>MKP Opéra</nom>
		</element>
		<element id="1" type="bar">
			<latitude>48.8678347</latitude>
			<longitude>2.3438681</longitude>
			<adresse>Rue Montmartre, Mail, 2e</adresse>
			<nom>O'Sullivans Rebel Red</nom>
		</element>
	</arrondissement>
	<arrondissement num ="75004">
		<element id="0" type="bar">
			<latitude>48.8556943</latitude>
			<longitude>2.3595261</longitude>
			<adresse>Rue de Rivoli, St-Gervais, 4e</adresse>
			<nom>Le Comptoir</nom>
		</element>
		<element id="1" type="bar">
			<latitude>48.8595197</latitude>
			<longitude>2.3519694</longitude>
			<adresse>Place Igor Stravinsky, Beaubourg, St-Merri, 4e</adresse>
			<nom>Le Festin Nu</nom>
		</element>
		<element id="2" type="bar">
			<latitude>48.8538804</latitude>
			<longitude>2.3682665</longitude>
			<adresse>Rue de la Bastille, Arsenal, 4e</adresse>
			<nom>Le Bouillon St Stef</nom>
		</element>
	</arrondissement>
	<arrondissement num ="75005">
		<element id="0" type="bar">
			<latitude>48.8449764</latitude>
			<longitude>2.3549028</longitude>
			<adresse>Rue Guy de la Brosse, St-Victor, 5e</adresse>
			<nom>Chez Michel</nom>
		</element>
		<element id="1" type="bar">
			<latitude>48.8490395</latitude>
			<longitude>2.348557</longitude>
			<adresse>Rue de la Montagne Sainte-Geneviève, Sorbonne, 5e</adresse>
			<nom>Dupont Versailles</nom>
		</element>
		<element id="2" type="bar">
			<latitude>48.8525447</latitude>
			<longitude>2.3466628</longitude>
			<adresse>Rue du Petit Pont, Sorbonne, 5e</adresse>
			<nom>L'Alibi</nom>
		</element>
		<element id="3" type="bar">
			<latitude>48.850854</latitude>
			<longitude>2.3477158</longitude>
			<adresse>Rue des Anglais, Sorbonne, 5e</adresse>
			<nom>L'Europe</nom>
		</element>
		<element id="4" type="bar">
			<latitude>48.8457908</latitude>
			<longitude>2.3539346</longitude>
			<adresse>Rue des Boulangers, St-Victor, 5e</adresse>
			<nom>Le Bistrot des Artistes</nom>
		</element>
		<element id="5" type="bar">
			<latitude>48.845275</latitude>
			<longitude>2.3491659</longitude>
			<adresse>45, Rue Descartes, 5e Arrondissement, 5e</adresse>
			<nom>Finnegan's Wake</nom>
		</element>
		<element id="6" type="bar">
			<latitude>48.853075</latitude>
			<longitude>2.3455319</longitude>
			<adresse>20, Rue de la Huchette, Ilot Saint-Severin, Sorbonne, 5e</adresse>
			<nom>Mc Brides</nom>
		</element>
		<element id="7" type="bar">
			<latitude>48.8423393</latitude>
			<longitude>2.3498473</longitude>
			<adresse>Rue Mouffetard, 5e Arrondissement, 5e</adresse>
			<nom>Le Havane</nom>
		</element>
		<element id="8" type="bar">
			<latitude>48.8474266</latitude>
			<longitude>2.3471508</longitude>
			<adresse>18, Rue Laplace, Sorbonne, 5e</adresse>
			<nom>The Frog &amp; Rosbif</nom>
		</element>
		<element id="9" type="bar">
			<latitude>48.8424716</latitude>
			<longitude>2.3498216</longitude>
			<adresse>Rue Mouffetard, 5e Arrondissement, 5e</adresse>
			<nom>Le Dumas</nom>
		</element>
		<element id="10" type="bar">
			<latitude>48.8442543</latitude>
			<longitude>2.3498652</longitude>
			<adresse>51, Rue Lacépède, 5e Arrondissement, 5e</adresse>
			<nom>Le Sully</nom>
		</element>
		<element id="11" type="bar">
			<latitude>48.8430061</latitude>
			<longitude>2.3486843</longitude>
			<adresse>16, Rue du Pot de Fer, Val-de-Grâce, 5e</adresse>
			<nom>Dr. Feelgood</nom>
		</element>
		<element id="12" type="bar">
			<latitude>48.8456039</latitude>
			<longitude>2.3547969</longitude>
			<adresse>Place Jussieu, St-Victor, 5e</adresse>
			<nom>Lush</nom>
		</element>
		<element id="13" type="bar">
			<latitude>48.8457052</latitude>
			<longitude>2.3419808</longitude>
			<adresse>Rue Royer-Collard, Val-de-Grâce, 5e</adresse>
			<nom>Fauve Paris L'abreuvoir</nom>
		</element>
		<element id="14" type="bar">
			<latitude>48.8462166</latitude>
			<longitude>2.342933</longitude>
			<adresse>Rue Malebranche, 5e Arrondissement, 5e</adresse>
			<nom>Celtic Corner</nom>
		</element>
	</arrondissement>
	<arrondissement num ="75006">
		<element id="0" type="bar">
			<latitude>48.8522792</latitude>
			<longitude>2.3345573</longitude>
			<adresse>Rue Princesse, Odéon, 6e</adresse>
			<nom>Au Fût et à Mesure</nom>
		</element>
	</arrondissement>
	<arrondissement num ="75007">
	</arrondissement>
	<arrondissement num ="75008">
		<element id="0" type="bar">
			<latitude>48.8778514</latitude>
			<longitude>2.3157284</longitude>
			<adresse>Rue de Lisbonne, Europe, 8e</adresse>
			<nom>Patrick's Le Ballon Vert</nom>
		</element>
	</arrondissement>
	<arrondissement num ="75009">
		<element id="0" type="bar">
			<latitude>48.870988</latitude>
			<longitude>2.3449749</longitude>
			<adresse>Boulevard Poissonnière, Sentier, 9e Arrondissement</adresse>
			<nom>James Hetfeeld's Pub</nom>
		</element>
		<element id="1" type="bar">
			<latitude>48.8713994</latitude>
			<longitude>2.3446987</longitude>
			<adresse>Boulevard Poissonnière, Sentier, 9e Arrondissement</adresse>
			<nom>Margen's Pub</nom>
		</element>
	</arrondissement>
	<arrondissement num ="75010">
		<element id="0" type="bar">
			<latitude>48.8713202</latitude>
			<longitude>2.365856</longitude>
			<adresse>Quai de Jemmapes, Porte-St-Martin, 10e</adresse>
			<nom>Le chinois</nom>
		</element>
		<element id="1" type="bar">
			<latitude>48.8703084</latitude>
			<longitude>2.3528255</longitude>
			<adresse>Rue du Faubourg Saint-Denis, Porte-St-Denis, 10e</adresse>
			<nom>Thirsty Mad Cat</nom>
		</element>
		<element id="2" type="bar">
			<latitude>48.8782984</latitude>
			<longitude>2.3583405</longitude>
			<adresse>1, Rue des Deux Gares, St-Vincent-de-Paul, 10e</adresse>
			<nom>L'Adresse</nom>
		</element>
		<element id="3" type="bar">
			<latitude>48.8727411</latitude>
			<longitude>2.3545133</longitude>
			<adresse>Rue du Château d'Eau, Porte-St-Denis, 10e</adresse>
			<nom>Le Comptoir</nom>
		</element>
		<element id="4" type="bar">
			<latitude>48.8711993</latitude>
			<longitude>2.3697018</longitude>
			<adresse>13, Rue Jacques Louvel-Tessier, Hôpital-St-Louis, 10e</adresse>
			<nom>Le Rivolux</nom>
		</element>
		<element id="5" type="bar">
			<latitude>48.8746926</latitude>
			<longitude>2.3541936</longitude>
			<adresse>12, Rue de Paradis, Porte-St-Denis, 10e</adresse>
			<nom>Le Château d'Eau</nom>
		</element>
		<element id="6" type="bar">
			<latitude>48.8707201</latitude>
			<longitude>2.3498182</longitude>
			<adresse>Rue d'Hauteville, Porte-St-Denis, 10e</adresse>
			<nom>L'Iris</nom>
		</element>
	</arrondissement>
	<arrondissement num ="75011">
		<element id="0" type="bar">
			<latitude>48.8648511</latitude>
			<longitude>2.3817815</longitude>
			<adresse>6, Avenue Jean Aicard, St-Ambroise, 11e</adresse>
			<nom>Le Dernier Bar Avant la Fin du Monde</nom>
		</element>
		<element id="1" type="bar">
			<latitude>48.8614116</latitude>
			<longitude>2.3675537</longitude>
			<adresse>105, Rue Amelot, St-Ambroise, 11e</adresse>
			<nom>L'antidote</nom>
		</element>
		<element id="2" type="bar">
			<latitude>48.8527486</latitude>
			<longitude>2.3889981</longitude>
			<adresse>Rue Alexandre Dumas, Ste-Marguerite, 11e</adresse>
			<nom>Taverne de la Butte</nom>
		</element>
		<element id="3" type="bar">
			<latitude>48.8553007</latitude>
			<longitude>2.3755708</longitude>
			<adresse>34, Rue Keller, Roquette, 11e</adresse>
			<nom>Sunset</nom>
		</element>
		<element id="4" type="bar">
			<latitude>48.8666898</latitude>
			<longitude>2.369421</longitude>
			<adresse>Boulevard Richard Lenoir, Folie-Méricourt, 11e</adresse>
			<nom>Paradis 13</nom>
		</element>
		<element id="5" type="bar">
			<latitude>48.8584243</latitude>
			<longitude>2.3685727</longitude>
			<adresse>Rue Amelot, St-Ambroise, 11e</adresse>
			<nom>Black Mad Crawler</nom>
		</element>
		<element id="6" type="bar">
			<latitude>48.8687538</latitude>
			<longitude>2.379949</longitude>
			<adresse>Rue Jean-Pierre Timbaud, Folie-Méricourt, 11e</adresse>
			<nom>Le Berny</nom>
		</element>
		<element id="7" type="bar">
			<latitude>48.8683391</latitude>
			<longitude>2.3714311</longitude>
			<adresse>Rue de la Fontaine au Roi, Folie-Méricourt, 11e</adresse>
			<nom>Le bar à mine</nom>
		</element>
	</arrondissement>
	<arrondissement num ="75012">
		<element id="0" type="bar">
			<latitude>48.8467474</latitude>
			<longitude>2.3783883</longitude>
			<adresse>Rue de Charenton, 12e Arrondissement (urbain), Quinze-Vingts, 12e</adresse>
			<nom>Le Maryland</nom>
		</element>
		<element id="1" type="bar">
			<latitude>48.8486443</latitude>
			<longitude>2.3753679</longitude>
			<adresse>Rue de Charenton, 12e Arrondissement (urbain), Quinze-Vingts, 12e</adresse>
			<nom>L'Acapulco</nom>
		</element>
		<element id="2" type="bar">
			<latitude>48.8468648</latitude>
			<longitude>2.3840074</longitude>
			<adresse>88, Boulevard Diderot, 12e Arrondissement (urbain), Quinze-Vingts, 12e</adresse>
			<nom>Le Calbar</nom>
		</element>
		<element id="3" type="bar">
			<latitude>48.8494366</latitude>
			<longitude>2.3743781</longitude>
			<adresse>Rue de Charenton, 12e Arrondissement (urbain), Quinze-Vingts, 12e</adresse>
			<nom>L'Assassin</nom>
		</element>
		<element id="4" type="bar">
			<latitude>48.8492104</latitude>
			<longitude>2.389517</longitude>
			<adresse>Rue Claude Tillier, 12e Arrondissement (urbain), Picpus, 12e</adresse>
			<nom>L'Escargot</nom>
		</element>
		<element id="5" type="bar">
			<latitude>48.847497</latitude>
			<longitude>2.3970587</longitude>
			<adresse>Place de la Nation, 12e Arrondissement (urbain), Picpus, 12e</adresse>
			<nom>Tête à l'envers</nom>
		</element>
	</arrondissement>
	<arrondissement num ="75013">
		<element id="0" type="bar">
			<latitude>48.8304045</latitude>
			<longitude>2.3475111</longitude>
			<adresse>Rue Edmond Gondinet, Croulebarbe, 13e</adresse>
			<nom>Chez Anna</nom>
		</element>
		<element id="1" type="bar">
			<latitude>48.8276841</latitude>
			<longitude>2.3501384</longitude>
			<adresse>Rue de la Butte aux Cailles, Butte aux Cailles, Maison-Blanche, 13e</adresse>
			<nom>L'Olivier</nom>
		</element>
	</arrondissement>
	<arrondissement num ="75014">
		<element id="0" type="bar">
			<latitude>48.8366253</latitude>
			<longitude>2.3205726</longitude>
			<adresse>33, Rue de l'Ouest, Plaisance, 14e</adresse>
			<nom>Osmoz Café</nom>
		</element>
		<element id="1" type="bar">
			<latitude>48.8341125</latitude>
			<longitude>2.3181604</longitude>
			<adresse>Rue Raymond Losserand, Plaisance, 14e</adresse>
			<nom>Au Métro</nom>
		</element>
		<element id="2" type="bar">
			<latitude>48.8428397</latitude>
			<longitude>2.3260648</longitude>
			<adresse>42, Rue du Montparnasse, Montparnasse, 14e</adresse>
			<nom>The Cork and Cavan</nom>
		</element>
		<element id="3" type="bar">
			<latitude>48.8281219</latitude>
			<longitude>2.3158457</longitude>
			<adresse>Rue Didot, Plaisance, 14e</adresse>
			<nom>Le Falstaff</nom>
		</element>
	</arrondissement>
	<arrondissement num ="75015">
		<element id="0" type="bar">
			<latitude>48.8503692</latitude>
			<longitude>2.2930824</longitude>
			<adresse>Boulevard de Grenelle, Grenelle, 15e</adresse>
			<nom>James Joyce</nom>
		</element>
		<element id="1" type="bar">
			<latitude>48.8357125</latitude>
			<longitude>2.2929761</longitude>
			<adresse>354, Rue de Vaugirard, St-Lambert, 15e</adresse>
			<nom>Café Leffe</nom>
		</element>
		<element id="2" type="bar">
			<latitude>48.8350897</latitude>
			<longitude>2.3042236</longitude>
			<adresse>Rue de Vouillé, St-Lambert, 15e</adresse>
			<nom>Au train de vie</nom>
		</element>
		<element id="3" type="bar">
			<latitude>48.84384</latitude>
			<longitude>2.2958801</longitude>
			<adresse>88, Rue de la Croix Nivert, Grenelle, 15e</adresse>
			<nom>Le Pantalon</nom>
		</element>
		<element id="4" type="bar">
			<latitude>48.8419073</latitude>
			<longitude>2.300498</longitude>
			<adresse>135, Rue Lecourbe, St-Lambert, 15e</adresse>
			<nom>Les Fontaines</nom>
		</element>
	</arrondissement>
	<arrondissement num ="75016">
	</arrondissement>
	<arrondissement num ="75017">
		<element id="0" type="bar">
			<latitude>48.8851266</latitude>
			<longitude>2.3251655</longitude>
			<adresse>Rue des Dames, Batignolles, 17e</adresse>
			<nom>Le Triangle</nom>
		</element>
	</arrondissement>
	<arrondissement num ="75018">
		<element id="0" type="bar">
			<latitude>48.8904696</latitude>
			<longitude>2.3392991</longitude>
			<adresse>10, Rue de la Fontaine du But, Grandes-Carrières, 18e</adresse>
			<nom>Epsilon</nom>
		</element>
	</arrondissement>
	<arrondissement num ="75019">
	</arrondissement>
	<arrondissement num ="75020">
	</arrondissement>
</root>