<?xml version="1.0" encoding="UTF-8" standalone="no"?>
<!DOCTYPE root SYSTEM "xml_pivot.dtd">
<root>
	<arrondissement num="75001">
		<element id="1" type="cinema">
			<latitude>48.859785</latitude>
			<longitude>2.346716</longitude>
			<adresse>FORUM DES HALLES</adresse>
			<nom>UGC CINE CITE LES HALLES 1</nom>
		</element>
		<element id="2" type="cinema">
			<latitude>48.861661</latitude>
			<longitude>2.347857</longitude>
			<adresse>1 RUE DE L'ORIENT-EXPRESS</adresse>
			<nom>FORUM ORIENT EXPRESS 1</nom>
		</element>
		<element id="3" type="cafe">
			<latitude>48.865134</latitude>
			<longitude>2.395055</longitude>
			<adresse>2 place Martin Nadaud</adresse>
			<nom>Café Martin</nom>
		</element>
		<element id="4" type="cafe">
			<latitude>48.866259</latitude>
			<longitude>2.338739</longitude>
			<adresse>9 rue des petits champs</adresse>
			<nom>Café Pistache</nom>
		</element>
		<element id="5" type="cafe">
			<latitude>48.863675</latitude>
			<longitude>2.348701</longitude>
			<adresse>14 rue Turbigo, Paris</adresse>
			<nom>Etienne</nom>
		</element>
		<element id="6" type="cafe">
			<latitude>48.862655</latitude>
			<longitude>2.337607</longitude>
			<adresse>202 rue Saint Honoré</adresse>
			<nom>Ragueneau</nom>
		</element>
		<element id="7" type="cafe">
			<latitude>48.862655</latitude>
			<longitude>2.337607</longitude>
			<adresse>202 rue Saint-Honoré</adresse>
			<nom>Le Ragueneau</nom>
		</element>
		<element id="8" type="cafe">
			<latitude>48.864543</latitude>
			<longitude>2.340997</longitude>
			<adresse>42 rue coquillère</adresse>
			<nom>Le bistrot de Maëlle et Augustin</nom>
		</element>
		<element id="9" type="cafe">
			<latitude>48.857533</latitude>
			<longitude>2.346477</longitude>
			<adresse>2 bis quai de la mégisserie</adresse>
			<nom>Le Reynou</nom>
		</element>
		<element id="10" type="cafe">
			<latitude>48.880239</latitude>
			<longitude>2.299493</longitude>
			<adresse>83 avenue de Wagram</adresse>
			<nom>Peperoni</nom>
		</element>
		<element id="11" type="marche">
			<latitude>48.863922</latitude>
			<longitude>2.34558</longitude>
			<adresse>Rue Montmartre 75001 Paris, France</adresse>
			<nom>SAINT EUSTACHE</nom>
		</element>
		<element id="12" type="marche">
			<latitude>48.867218</latitude>
			<longitude>2.331491</longitude>
			<adresse>Place du marché Saint Honoré 75001 Paris, France</adresse>
			<nom>SAINT HONORE</nom>
		</element>
		<element id="13" type="bibli">
			<longitude>2.3478752</longitude>
			<latitude>48.8624676</latitude>
			<adresse>91, RUE RAMBUTEAU</adresse>
			<nom>bibliotheque municipale la fontaine</nom>
		</element>
		<element id="14" type="bibli">
			<longitude>2.3412674</longitude>
			<latitude>48.8600425</latitude>
			<adresse>4, PLACE DU LOUVRE</adresse>
			<nom>bibliotheque municipale du louvre</nom>
		</element>
		<element id="15" type="cinema">
			<latitude>48.859785</latitude>
			<longitude>2.346716</longitude>
			<adresse>FORUM DES HALLES</adresse>
			<nom>UGC CINE CITE LES HALLES 1</nom>
		</element>
		<element id="16" type="cinema">
			<latitude>48.861661</latitude>
			<longitude>2.347857</longitude>
			<adresse>1 RUE DE L'ORIENT-EXPRESS</adresse>
			<nom>FORUM ORIENT EXPRESS 1</nom>
		</element>
		<element id="17" type="bibli">
			<longitude>2.3478752</longitude>
			<latitude>48.8624676</latitude>
			<adresse>91, RUE RAMBUTEAU</adresse>
			<nom>bibliotheque municipale la fontaine</nom>
		</element>
		<element id="18" type="bibli">
			<longitude>2.3412674</longitude>
			<latitude>48.8600425</latitude>
			<adresse>4, PLACE DU LOUVRE</adresse>
			<nom>bibliotheque municipale du louvre</nom>
		</element>
		<element id="19" type="marche">
			<latitude>48.863922</latitude>
			<longitude>2.34558</longitude>
			<adresse>Rue Montmartre 75001 Paris, France</adresse>
			<nom>SAINT EUSTACHE</nom>
		</element>
		<element id="20" type="marche">
			<latitude>48.867218</latitude>
			<longitude>2.331491</longitude>
			<adresse>Place du marché Saint Honoré 75001 Paris, France</adresse>
			<nom>SAINT HONORE</nom>
		</element>
		<element id="21" type="bar">
			<latitude>48.8579257</latitude>
			<longitude>2.3463544</longitude>
			<adresse>Avenue Victoria, St-Germain-l'Auxerrois, 1er</adresse>
			<nom>Les Arènes</nom>
		</element>
		<element id="22" type="bar">
			<latitude>48.8616362</latitude>
			<longitude>2.3492126</longitude>
			<adresse>Rue Saint-Denis, Les Halles, 1er</adresse>
			<nom>Pop In</nom>
		</element>
		<element id="23" type="bar">
			<latitude>48.861037</latitude>
			<longitude>2.3488844</longitude>
			<adresse>Rue Saint-Denis, Les Halles, 1er</adresse>
			<nom>Hall's Beer Tavern</nom>
		</element>
		<element id="24" type="bar">
			<latitude>48.8582957</latitude>
			<longitude>2.3474796</longitude>
			<adresse>4, Rue Saint-Denis, St-Germain-l'Auxerrois, 1er</adresse>
			<nom>Le Mayflower</nom>
		</element>
		<element id="25" type="bar">
			<latitude>48.8592361</latitude>
			<longitude>2.3476099</longitude>
			<adresse>Rue Saint-Denis, Quartier des Halles, Les Halles, 1er</adresse>
			<nom>Au Trappiste</nom>
		</element>
		<element id="26" type="cafe">
			<latitude>48.865134</latitude>
			<longitude>2.395055</longitude>
			<adresse>2 place Martin Nadaud</adresse>
			<nom>Café Martin</nom>
		</element>
		<element id="27" type="cafe">
			<latitude>48.866259</latitude>
			<longitude>2.338739</longitude>
			<adresse>9 rue des petits champs</adresse>
			<nom>Café Pistache</nom>
		</element>
		<element id="28" type="cafe">
			<latitude>48.863675</latitude>
			<longitude>2.348701</longitude>
			<adresse>14 rue Turbigo, Paris</adresse>
			<nom>Etienne</nom>
		</element>
		<element id="29" type="cafe">
			<latitude>48.862655</latitude>
			<longitude>2.337607</longitude>
			<adresse>202 rue Saint Honoré</adresse>
			<nom>Ragueneau</nom>
		</element>
		<element id="30" type="cafe">
			<latitude>48.862655</latitude>
			<longitude>2.337607</longitude>
			<adresse>202 rue Saint-Honoré</adresse>
			<nom>Le Ragueneau</nom>
		</element>
		<element id="31" type="cafe">
			<latitude>48.864543</latitude>
			<longitude>2.340997</longitude>
			<adresse>42 rue coquillère</adresse>
			<nom>Le bistrot de Maëlle et Augustin</nom>
		</element>
		<element id="32" type="cafe">
			<latitude>48.857533</latitude>
			<longitude>2.346477</longitude>
			<adresse>2 bis quai de la mégisserie</adresse>
			<nom>Le Reynou</nom>
		</element>
		<element id="33" type="cafe">
			<latitude>48.880239</latitude>
			<longitude>2.299493</longitude>
			<adresse>83 avenue de Wagram</adresse>
			<nom>Peperoni</nom>
		</element>
	</arrondissement>
	<arrondissement num="75002">
		<element id="34" type="cinema">
			<latitude>48.870623</latitude>
			<longitude>2.347254</longitude>
			<adresse>1 A 5 BOULEVARD POISSONNIERE</adresse>
			<nom>GRAND REX</nom>
		</element>
		<element id="35" type="cinema">
			<latitude>48.8701164</latitude>
			<longitude>2.3486831</longitude>
			<adresse>14 RUE VILLE NEUVE 31 BOULEVARD BONNE NLL</adresse>
			<nom>BEVERLEY</nom>
		</element>
		<element id="36" type="cinema">
			<latitude>48.870632</latitude>
			<longitude>2.334338</longitude>
			<adresse>32 RUE LOUIS LEGRAND</adresse>
			<nom>GAUMONT OPERA PREMIER 1</nom>
		</element>
		<element id="37" type="cafe">
			<latitude>48.86525</latitude>
			<longitude>2.350507</longitude>
			<adresse>142 Rue Saint-Denis 75002 Paris</adresse>
			<nom>La Cordonnerie</nom>
		</element>
		<element id="38" type="cafe">
			<latitude>48.864655</latitude>
			<longitude>2.350089</longitude>
			<adresse>1 Passage du Grand Cerf</adresse>
			<nom>Le Pas Sage</nom>
		</element>
		<element id="39" type="cafe">
			<latitude>48.868838</latitude>
			<longitude>2.33605</longitude>
			<adresse>23 rue saint augustin</adresse>
			<nom>Le Petit Choiseul</nom>
		</element>
		<element id="40" type="cafe">
			<latitude>48.864957</latitude>
			<longitude>2.346938</longitude>
			<adresse>58 rue de Montorgueil</adresse>
			<nom>Drole d'endroit pour une rencontre</nom>
		</element>
		<element id="41" type="cafe">
			<latitude>48.866993</latitude>
			<longitude>2.336006</longitude>
			<adresse>30 rue des Petits-Champs</adresse>
			<nom>Brûlerie San José</nom>
		</element>
		<element id="42" type="cafe">
			<latitude>48.869771</latitude>
			<longitude>2.342501</longitude>
			<adresse>52 rue Notre-Dame des Victoires</adresse>
			<nom>Dédé la frite</nom>
		</element>
		<element id="43" type="cafe">
			<latitude>48.866737</latitude>
			<longitude>2.33716</longitude>
			<adresse>16 rue des Petits Champs</adresse>
			<nom>Chez Rutabaga</nom>
		</element>
		<element id="44" type="cafe">
			<latitude>48.86805</latitude>
			<longitude>2.353313</longitude>
			<adresse>129 boulevard sebastopol</adresse>
			<nom>Au cerceau d'or</nom>
		</element>
		<element id="45" type="cafe">
			<latitude>48.871396</latitude>
			<longitude>2.338321</longitude>
			<adresse>18 rue Favart</adresse>
			<nom>Le Biz</nom>
		</element>
		<element id="46" type="cafe">
			<latitude>48.870287</latitude>
			<longitude>2.332491</longitude>
			<adresse>place de l'opera</adresse>
			<nom>L'Entracte</nom>
		</element>
		<element id="47" type="cafe">
			<latitude>48.868109</latitude>
			<longitude>2.331785</longitude>
			<adresse>1 rue Louis le Grand</adresse>
			<nom>Le Cap Bourbon</nom>
		</element>
		<element id="48" type="cafe">
			<latitude>48.867948</latitude>
			<longitude>2.343582</longitude>
			<adresse>95 rue Montmartre</adresse>
			<nom>Le Café frappé</nom>
		</element>
		<element id="49" type="marche">
			<latitude>48.868584</latitude>
			<longitude>2.341653</longitude>
			<adresse>Place de la Bourse 75002 Paris, France</adresse>
			<nom>BOURSE</nom>
		</element>
		<element id="50" type="bibli">
			<longitude>2.3403795</longitude>
			<latitude>48.8665115</latitude>
			<adresse>2, PASSAGE DES PETITS PERES</adresse>
			<nom>bibliotheque municipale charlotte belbo</nom>
		</element>
		<element id="51" type="cinema">
			<latitude>48.870623</latitude>
			<longitude>2.347254</longitude>
			<adresse>1 A 5 BOULEVARD POISSONNIERE</adresse>
			<nom>GRAND REX</nom>
		</element>
		<element id="52" type="cinema">
			<latitude>48.8701164</latitude>
			<longitude>2.3486831</longitude>
			<adresse>14 RUE VILLE NEUVE 31 BOULEVARD BONNE NLL</adresse>
			<nom>BEVERLEY</nom>
		</element>
		<element id="53" type="cinema">
			<latitude>48.870632</latitude>
			<longitude>2.334338</longitude>
			<adresse>32 RUE LOUIS LEGRAND</adresse>
			<nom>GAUMONT OPERA PREMIER 1</nom>
		</element>
		<element id="54" type="bibli">
			<longitude>2.3403795</longitude>
			<latitude>48.8665115</latitude>
			<adresse>2, PASSAGE DES PETITS PERES</adresse>
			<nom>bibliotheque municipale charlotte belbo</nom>
		</element>
		<element id="55" type="marche">
			<latitude>48.868584</latitude>
			<longitude>2.341653</longitude>
			<adresse>Place de la Bourse 75002 Paris, France</adresse>
			<nom>BOURSE</nom>
		</element>
		<element id="56" type="bar">
			<latitude>48.8693141</latitude>
			<longitude>2.3323713</longitude>
			<adresse>4, Rue Daunou, Gaillon, 2e</adresse>
			<nom>MKP Opéra</nom>
		</element>
		<element id="57" type="bar">
			<latitude>48.8643869</latitude>
			<longitude>2.3503038</longitude>
			<adresse>Rue Tiquetonne, Sentier, Bonne-Nouvelle, 2e</adresse>
			<nom>Le Havane</nom>
		</element>
		<element id="58" type="bar">
			<latitude>48.8678347</latitude>
			<longitude>2.3438681</longitude>
			<adresse>Rue Montmartre, Mail, 2e</adresse>
			<nom>Taverne de la Butte</nom>
		</element>
		<element id="59" type="bar">
			<latitude>48.8704075</latitude>
			<longitude>2.3483529</longitude>
			<adresse>Rue Notre-Dame de Recouvrance, Sentier, Bonne-Nouvelle, 2e</adresse>
			<nom>Le Petit Châtelet</nom>
		</element>
		<element id="60" type="cafe">
			<latitude>48.86525</latitude>
			<longitude>2.350507</longitude>
			<adresse>142 Rue Saint-Denis 75002 Paris</adresse>
			<nom>La Cordonnerie</nom>
		</element>
		<element id="61" type="cafe">
			<latitude>48.864655</latitude>
			<longitude>2.350089</longitude>
			<adresse>1 Passage du Grand Cerf</adresse>
			<nom>Le Pas Sage</nom>
		</element>
		<element id="62" type="cafe">
			<latitude>48.868838</latitude>
			<longitude>2.33605</longitude>
			<adresse>23 rue saint augustin</adresse>
			<nom>Le Petit Choiseul</nom>
		</element>
		<element id="63" type="cafe">
			<latitude>48.864957</latitude>
			<longitude>2.346938</longitude>
			<adresse>58 rue de Montorgueil</adresse>
			<nom>Drole d'endroit pour une rencontre</nom>
		</element>
		<element id="64" type="cafe">
			<latitude>48.866993</latitude>
			<longitude>2.336006</longitude>
			<adresse>30 rue des Petits-Champs</adresse>
			<nom>Brûlerie San José</nom>
		</element>
		<element id="65" type="cafe">
			<latitude>48.869771</latitude>
			<longitude>2.342501</longitude>
			<adresse>52 rue Notre-Dame des Victoires</adresse>
			<nom>Dédé la frite</nom>
		</element>
		<element id="66" type="cafe">
			<latitude>48.866737</latitude>
			<longitude>2.33716</longitude>
			<adresse>16 rue des Petits Champs</adresse>
			<nom>Chez Rutabaga</nom>
		</element>
		<element id="67" type="cafe">
			<latitude>48.86805</latitude>
			<longitude>2.353313</longitude>
			<adresse>129 boulevard sebastopol</adresse>
			<nom>Au cerceau d'or</nom>
		</element>
		<element id="68" type="cafe">
			<latitude>48.871396</latitude>
			<longitude>2.338321</longitude>
			<adresse>18 rue Favart</adresse>
			<nom>Le Biz</nom>
		</element>
		<element id="69" type="cafe">
			<latitude>48.870287</latitude>
			<longitude>2.332491</longitude>
			<adresse>place de l'opera</adresse>
			<nom>L'Entracte</nom>
		</element>
		<element id="70" type="cafe">
			<latitude>48.868109</latitude>
			<longitude>2.331785</longitude>
			<adresse>1 rue Louis le Grand</adresse>
			<nom>Le Cap Bourbon</nom>
		</element>
		<element id="71" type="cafe">
			<latitude>48.867948</latitude>
			<longitude>2.343582</longitude>
			<adresse>95 rue Montmartre</adresse>
			<nom>Le Café frappé</nom>
		</element>
	</arrondissement>
	<arrondissement num="75003">
		<element id="72" type="cinema">
			<latitude>48.861555</latitude>
			<longitude>2.352217</longitude>
			<adresse>50 RUE RAMBUTEAU</adresse>
			<nom>MK2 BEAUBOURG 1</nom>
		</element>
		<element id="73" type="cafe">
			<latitude>48.863038</latitude>
			<longitude>2.3604</longitude>
			<adresse>82 rue des archives</adresse>
			<nom>Face Bar</nom>
		</element>
		<element id="74" type="cafe">
			<latitude>48.867465</latitude>
			<longitude>2.357791</longitude>
			<adresse>39 rue Notre Dame de Nazareth</adresse>
			<nom>NoMa</nom>
		</element>
		<element id="75" type="cafe">
			<latitude>48.858709</latitude>
			<longitude>2.362701</longitude>
			<adresse>15 rue du Parc Royal</adresse>
			<nom>Le Sévigné</nom>
		</element>
		<element id="76" type="cafe">
			<latitude>48.867092</latitude>
			<longitude>2.363288</longitude>
			<adresse>Place de la République</adresse>
			<nom>Le café Monde et Médias</nom>
		</element>
		<element id="77" type="cafe">
			<latitude>48.859772</latitude>
			<longitude>2.360558</longitude>
			<adresse>78 rue vieille du temple</adresse>
			<nom>La Perle</nom>
		</element>
		<element id="78" type="marche">
			<latitude>48.862759</latitude>
			<longitude>2.36279</longitude>
			<adresse>33, Rue de Bretagne 75003 Paris, France</adresse>
			<nom>Enfants rouges</nom>
		</element>
		<element id="79" type="bibli">
			<longitude>2.3600918</longitude>
			<latitude>48.8636388</latitude>
			<adresse>8, RUE PORTEFOIN</adresse>
			<nom>bibliotheque marguerite audoux</nom>
		</element>
		<element id="80" type="cinema">
			<latitude>48.861555</latitude>
			<longitude>2.352217</longitude>
			<adresse>50 RUE RAMBUTEAU</adresse>
			<nom>MK2 BEAUBOURG 1</nom>
		</element>
		<element id="81" type="bibli">
			<longitude>2.3600918</longitude>
			<latitude>48.8636388</latitude>
			<adresse>8, RUE PORTEFOIN</adresse>
			<nom>bibliotheque marguerite audoux</nom>
		</element>
		<element id="82" type="marche">
			<latitude>48.862759</latitude>
			<longitude>2.36279</longitude>
			<adresse>33, Rue de Bretagne 75003 Paris, France</adresse>
			<nom>Enfants rouges</nom>
		</element>
		<element id="83" type="cafe">
			<latitude>48.863038</latitude>
			<longitude>2.3604</longitude>
			<adresse>82 rue des archives</adresse>
			<nom>Face Bar</nom>
		</element>
		<element id="84" type="cafe">
			<latitude>48.867465</latitude>
			<longitude>2.357791</longitude>
			<adresse>39 rue Notre Dame de Nazareth</adresse>
			<nom>NoMa</nom>
		</element>
		<element id="85" type="cafe">
			<latitude>48.858709</latitude>
			<longitude>2.362701</longitude>
			<adresse>15 rue du Parc Royal</adresse>
			<nom>Le Sévigné</nom>
		</element>
		<element id="86" type="cafe">
			<latitude>48.867092</latitude>
			<longitude>2.363288</longitude>
			<adresse>Place de la République</adresse>
			<nom>Le café Monde et Médias</nom>
		</element>
		<element id="87" type="cafe">
			<latitude>48.859772</latitude>
			<longitude>2.360558</longitude>
			<adresse>78 rue vieille du temple</adresse>
			<nom>La Perle</nom>
		</element>
	</arrondissement>
	<arrondissement num="75004">
		<element id="88" type="cinema">
			<latitude>48.858689</latitude>
			<longitude>2.353591</longitude>
			<adresse>20 RUE DU TEMPLE</adresse>
			<nom>LATINA 1</nom>
		</element>
		<element id="89" type="cafe">
			<latitude>48.854685</latitude>
			<longitude>2.368487</longitude>
			<adresse>11/13 boulevard Beaumarchais</adresse>
			<nom>Chez Oscar</nom>
		</element>
		<element id="90" type="cafe">
			<latitude>48.855161</latitude>
			<longitude>2.360218</longitude>
			<adresse>125 Rue Saint-Antoine</adresse>
			<nom>l'Eléphant du nil</nom>
		</element>
		<element id="91" type="cafe">
			<latitude>48.847552</latitude>
			<longitude>2.364719</longitude>
			<adresse>6 Bd henri IV</adresse>
			<nom>Le Sully</nom>
		</element>
		<element id="92" type="cafe">
			<latitude>48.859645</latitude>
			<longitude>2.355598</longitude>
			<adresse>1 rue Pecquay</adresse>
			<nom>Le Felteu</nom>
		</element>
		<element id="93" type="cafe">
			<latitude>48.855711</latitude>
			<longitude>2.359491</longitude>
			<adresse>16 rue de Rivoli</adresse>
			<nom>Rivolux</nom>
		</element>
		<element id="94" type="cafe">
			<latitude>48.857728</latitude>
			<longitude>2.349641</longitude>
			<adresse>10 rue Saint Martin</adresse>
			<nom>Le Café Livres</nom>
		</element>
		<element id="95" type="marche">
			<latitude>48.855053</latitude>
			<longitude>2.347416</longitude>
			<adresse>Place Louis Lépine 75004 Paris, France</adresse>
			<nom>OISEAUX CITE</nom>
		</element>
		<element id="96" type="marche">
			<latitude>48.855053</latitude>
			<longitude>2.347416</longitude>
			<adresse>Place Louis Lépine 75004 Paris, France</adresse>
			<nom>CITE</nom>
		</element>
		<element id="97" type="marche">
			<latitude>48.856209</latitude>
			<longitude>2.355425</longitude>
			<adresse>Place Baudoyer 75004 Paris, France</adresse>
			<nom>BAUDOYER</nom>
		</element>
		<element id="98" type="preservatifs">
			<latitude>48.853665</latitude>
			<longitude>2.363512</longitude>
			<adresse>5-7 rue Neuve St Pierre</adresse>
			<nom>TEP Neuve St Pierre</nom>
		</element>
		<element id="99" type="bibli">
			<longitude>2.3556738</longitude>
			<latitude>48.8563391</latitude>
			<adresse>2, PLACE BAUDOYER</adresse>
			<nom>bibliotheque municipale baudoyer</nom>
		</element>
		<element id="100" type="bibli">
			<longitude>2.3572189</longitude>
			<latitude>48.8515021</latitude>
			<adresse>21, RUE SAINT-LOUIS EN L'ILE</adresse>
			<nom>bibliotheque municipale isle saint-louis</nom>
		</element>
		<element id="101" type="preservatifs">
			<latitude>48.853665</latitude>
			<longitude>2.363512</longitude>
			<adresse>5-7 rue Neuve St Pierre</adresse>
			<nom>TEP Neuve St Pierre</nom>
		</element>
		<element id="102" type="cinema">
			<latitude>48.858689</latitude>
			<longitude>2.353591</longitude>
			<adresse>20 RUE DU TEMPLE</adresse>
			<nom>LATINA 1</nom>
		</element>
		<element id="103" type="bibli">
			<longitude>2.3556738</longitude>
			<latitude>48.8563391</latitude>
			<adresse>2, PLACE BAUDOYER</adresse>
			<nom>bibliotheque municipale baudoyer</nom>
		</element>
		<element id="104" type="bibli">
			<longitude>2.3572189</longitude>
			<latitude>48.8515021</latitude>
			<adresse>21, RUE SAINT-LOUIS EN L'ILE</adresse>
			<nom>bibliotheque municipale isle saint-louis</nom>
		</element>
		<element id="105" type="marche">
			<latitude>48.855053</latitude>
			<longitude>2.347416</longitude>
			<adresse>Place Louis Lépine 75004 Paris, France</adresse>
			<nom>OISEAUX CITE</nom>
		</element>
		<element id="106" type="marche">
			<latitude>48.855053</latitude>
			<longitude>2.347416</longitude>
			<adresse>Place Louis Lépine 75004 Paris, France</adresse>
			<nom>CITE</nom>
		</element>
		<element id="107" type="marche">
			<latitude>48.856209</latitude>
			<longitude>2.355425</longitude>
			<adresse>Place Baudoyer 75004 Paris, France</adresse>
			<nom>BAUDOYER</nom>
		</element>
		<element id="108" type="bar">
			<latitude>48.8556943</latitude>
			<longitude>2.3595261</longitude>
			<adresse>Rue de Rivoli, St-Gervais, 4e</adresse>
			<nom>Le Comptoir</nom>
		</element>
		<element id="109" type="bar">
			<latitude>48.8595197</latitude>
			<longitude>2.3519694</longitude>
			<adresse>Place Igor Stravinsky, Beaubourg, St-Merri, 4e</adresse>
			<nom>Le Pantalon</nom>
		</element>
		<element id="110" type="bar">
			<latitude>48.8538804</latitude>
			<longitude>2.3682665</longitude>
			<adresse>Rue de la Bastille, Arsenal, 4e</adresse>
			<nom>The Frog &amp; Princess</nom>
		</element>
		<element id="111" type="bar">
			<latitude>48.8573507</latitude>
			<longitude>2.3496668</longitude>
			<adresse>Rue de la Coutellerie, Beaubourg, St-Merri, 4e</adresse>
			<nom>La Venus Noire</nom>
		</element>
		<element id="112" type="cafe">
			<latitude>48.854685</latitude>
			<longitude>2.368487</longitude>
			<adresse>11/13 boulevard Beaumarchais</adresse>
			<nom>Chez Oscar</nom>
		</element>
		<element id="113" type="cafe">
			<latitude>48.855161</latitude>
			<longitude>2.360218</longitude>
			<adresse>125 Rue Saint-Antoine</adresse>
			<nom>l'Eléphant du nil</nom>
		</element>
		<element id="114" type="cafe">
			<latitude>48.847552</latitude>
			<longitude>2.364719</longitude>
			<adresse>6 Bd henri IV</adresse>
			<nom>Le Sully</nom>
		</element>
		<element id="115" type="cafe">
			<latitude>48.859645</latitude>
			<longitude>2.355598</longitude>
			<adresse>1 rue Pecquay</adresse>
			<nom>Le Felteu</nom>
		</element>
		<element id="116" type="cafe">
			<latitude>48.855711</latitude>
			<longitude>2.359491</longitude>
			<adresse>16 rue de Rivoli</adresse>
			<nom>Rivolux</nom>
		</element>
		<element id="117" type="cafe">
			<latitude>48.857728</latitude>
			<longitude>2.349641</longitude>
			<adresse>10 rue Saint Martin</adresse>
			<nom>Le Café Livres</nom>
		</element>
	</arrondissement>
	<arrondissement num="75005">
		<element id="118" type="cinema">
			<latitude>48.848384</latitude>
			<longitude>2.348973</longitude>
			<adresse>23 RUE DES ECOLES</adresse>
			<nom>LE DESPERADO 1</nom>
		</element>
		<element id="119" type="cinema">
			<latitude>48.847537</latitude>
			<longitude>2.352122</longitude>
			<adresse>5 RUE DES ECOLES</adresse>
			<nom>LE GRAND ACTION 1</nom>
		</element>
		<element id="120" type="cinema">
			<latitude>48.849504</latitude>
			<longitude>2.342788</longitude>
			<adresse>9 RUE CHAMPOLLION</adresse>
			<nom>QUARTIER LATIN 1</nom>
		</element>
		<element id="121" type="cinema">
			<latitude>48.842733</latitude>
			<longitude>2.342044</longitude>
			<adresse>10 RUE DES URSULINES</adresse>
			<nom>STUDIO DES URSULINES</nom>
		</element>
		<element id="122" type="cinema">
			<latitude>48.847502</latitude>
			<longitude>2.342301</longitude>
			<adresse>13 RUE VICTOR COUSIN</adresse>
			<nom>LE CINEMA DU PANTHEON</nom>
		</element>
		<element id="123" type="cinema">
			<latitude>48.849591</latitude>
			<longitude>2.342836</longitude>
			<adresse>7 RUE CHAMPOLLION</adresse>
			<nom>REFLET MEDICIS 1</nom>
		</element>
		<element id="124" type="cinema">
			<latitude>48.841535</latitude>
			<longitude>2.34958</longitude>
			<adresse>100 RUE MOUFFETARD</adresse>
			<nom>EPEE DE BOIS 1</nom>
		</element>
		<element id="125" type="cinema">
			<latitude>48.84815</latitude>
			<longitude>2.341975</longitude>
			<adresse>20 RUE CUJAS</adresse>
			<nom>ACCATONE</nom>
		</element>
		<element id="126" type="cinema">
			<latitude>48.853093</latitude>
			<longitude>2.344228</longitude>
			<adresse>7 PLACE ST MICHEL</adresse>
			<nom>ESPACE SAINT MICHEL 1</nom>
		</element>
		<element id="127" type="cinema">
			<latitude>48.849983</latitude>
			<longitude>2.343211</longitude>
			<adresse>51 RUE DES ECOLES</adresse>
			<nom>LE CHAMPO SALLE 1</nom>
		</element>
		<element id="128" type="cinema">
			<latitude>48.841154</latitude>
			<longitude>2.353269</longitude>
			<adresse>21 RUE CLEF 34 RUE DAUBENTON</adresse>
			<nom>LA CLEF 1</nom>
		</element>
		<element id="129" type="cinema">
			<latitude>48.851619</latitude>
			<longitude>2.347076</longitude>
			<adresse>42 RUE GALANDE</adresse>
			<nom>STUDIO GALANDE</nom>
		</element>
		<element id="130" type="cafe">
			<latitude>48.849293</latitude>
			<longitude>2.354486</longitude>
			<adresse>11 boulevard Saint-Germain</adresse>
			<nom>Cardinal Saint-Germain</nom>
		</element>
		<element id="131" type="cafe">
			<latitude>48.841089</latitude>
			<longitude>2.349565</longitude>
			<adresse>104 rue Mouffetard</adresse>
			<nom>Le Tournebride</nom>
		</element>
		<element id="132" type="cafe">
			<latitude>48.842833</latitude>
			<longitude>2.348314</longitude>
			<adresse>13 Rue du Pot de Fer</adresse>
			<nom>La Montagne Sans Geneviève</nom>
		</element>
		<element id="133" type="cafe">
			<latitude>48.850311</latitude>
			<longitude>2.34885</longitude>
			<adresse>place maubert</adresse>
			<nom>le ronsard</nom>
		</element>
		<element id="134" type="cafe">
			<latitude>48.844854</latitude>
			<longitude>2.345413</longitude>
			<adresse>10 rue d"Ulm</adresse>
			<nom>Waikiki</nom>
		</element>
		<element id="135" type="cafe">
			<latitude>48.839687</latitude>
			<longitude>2.347254</longitude>
			<adresse>35 rue Claude Bernard</adresse>
			<nom>Le Café d'avant</nom>
		</element>
		<element id="136" type="cafe">
			<latitude>48.838633</latitude>
			<longitude>2.349916</longitude>
			<adresse>5 rue Claude Bernard</adresse>
			<nom>Café Lea</nom>
		</element>
		<element id="137" type="cafe">
			<latitude>48.849821</latitude>
			<longitude>2.355337</longitude>
			<adresse>11 Quai de la Tournelle</adresse>
			<nom>Café rallye tournelles</nom>
		</element>
		<element id="138" type="cafe">
			<latitude>48.841526</latitude>
			<longitude>2.351012</longitude>
			<adresse>7 rue Epée de Bois</adresse>
			<nom>Invitez vous chez nous</nom>
		</element>
		<element id="139" type="cafe">
			<latitude>48.845458</latitude>
			<longitude>2.354796</longitude>
			<adresse>22 rue Linné</adresse>
			<nom>L'Inévitable</nom>
		</element>
		<element id="140" type="cafe">
			<latitude>48.845047</latitude>
			<longitude>2.349583</longitude>
			<adresse>1 rue Thouin</adresse>
			<nom>Le Descartes</nom>
		</element>
		<element id="141" type="cafe">
			<latitude>48.840624</latitude>
			<longitude>2.349766</longitude>
			<adresse>111 rue mouffetard</adresse>
			<nom>La Brûlerie des Ternes</nom>
		</element>
		<element id="142" type="marche">
			<latitude>48.849846</latitude>
			<longitude>2.34847</longitude>
			<adresse>Place Maubert 75005 Paris, France</adresse>
			<nom>MAUBERT</nom>
		</element>
		<element id="143" type="marche">
			<latitude>48.837147</latitude>
			<longitude>2.348437</longitude>
			<adresse>Bd Port Royal 75005 Paris, France</adresse>
			<nom>PORT ROYAL</nom>
		</element>
		<element id="144" type="marche">
			<latitude>48.843224</latitude>
			<longitude>2.35144</longitude>
			<adresse>Place Monge 75005 Paris, France</adresse>
			<nom>MONGE</nom>
		</element>
		<element id="145" type="preservatifs">
			<latitude>48.840319</latitude>
			<longitude>2.350767</longitude>
			<adresse>6 Place Bernard Halphen</adresse>
			<nom>Gymnase Patriarches</nom>
		</element>
		<element id="146" type="bibli">
			<longitude>2.3451014</longitude>
			<latitude>48.8520496</latitude>
			<adresse>6, RUE DES PRETRES SAINT-SEVERIN</adresse>
			<nom>bibliotheque municipale l'heure joyeuse</nom>
		</element>
		<element id="147" type="crous">
			<longitude>2.354121</longitude>
			<latitude>48.840868</latitude>
			<adresse>17 rue de Santeuil 75005 Paris</adresse>
			<nom>Cafétéria Santeuil</nom>
		</element>
		<element id="148" type="crous">
			<longitude>2.358005</longitude>
			<latitude>48.845514</latitude>
			<adresse>8 bis rue Cuvier 75005 Paris</adresse>
			<nom>RU Cuvier</nom>
		</element>
		<element id="149" type="crous">
			<longitude>2.3484535</longitude>
			<latitude>48.8416178</latitude>
			<adresse>10, rue Jean Calvin 75005 Paris</adresse>
			<nom>RU Châtelet</nom>
		</element>
		<element id="150" type="crous">
			<longitude>2.356092</longitude>
			<latitude>48.84115</latitude>
			<adresse>31 rue Geoffroy Saint Hilaire 75005 Paris</adresse>
			<nom>RU Censier</nom>
		</element>
		<element id="151" type="crous">
			<longitude>2.355044</longitude>
			<latitude>48.846248</latitude>
			<adresse>2 place Jussieu 75005 Paris</adresse>
			<nom>Cafétéria Atrium</nom>
		</element>
		<element id="152" type="crous">
			<longitude>2.343178</longitude>
			<latitude>48.845048</latitude>
			<adresse>11 rue Pierre et Marie Curie 75005 Paris</adresse>
			<nom>Cafétéria Poincaré (Henri)</nom>
		</element>
		<element id="153" type="crous">
			<longitude>2.3448603</longitude>
			<latitude>48.8468057</latitude>
			<adresse>12 place du Panthéon 75005 Paris</adresse>
			<nom>Cafétéria Lacretelle</nom>
		</element>
		<element id="154" type="crous">
			<longitude>2.3373625</longitude>
			<latitude>48.8401746</latitude>
			<adresse>39 avenue Georges Bernanos 75005 Paris</adresse>
			<nom>RU Bullier</nom>
		</element>
		<element id="155" type="crous">
			<longitude>2.344959</longitude>
			<latitude>48.847053</latitude>
			<adresse>12 place du Panthéon 75005 Paris</adresse>
			<nom>Cafétéria Panthéon</nom>
		</element>
		<element id="156" type="crous">
			<longitude>2.354121</longitude>
			<latitude>48.840868</latitude>
			<adresse>17 rue de Santeuil 75005 Paris</adresse>
			<nom>Cafétéria Santeuil</nom>
		</element>
		<element id="157" type="crous">
			<longitude>2.358005</longitude>
			<latitude>48.845514</latitude>
			<adresse>8 bis rue Cuvier 75005 Paris</adresse>
			<nom>RU Cuvier</nom>
		</element>
		<element id="158" type="crous">
			<longitude>2.3484535</longitude>
			<latitude>48.8416178</latitude>
			<adresse>10, rue Jean Calvin 75005 Paris</adresse>
			<nom>RU Châtelet</nom>
		</element>
		<element id="159" type="crous">
			<longitude>2.356092</longitude>
			<latitude>48.84115</latitude>
			<adresse>31 rue Geoffroy Saint Hilaire 75005 Paris</adresse>
			<nom>RU Censier</nom>
		</element>
		<element id="160" type="crous">
			<longitude>2.355044</longitude>
			<latitude>48.846248</latitude>
			<adresse>2 place Jussieu 75005 Paris</adresse>
			<nom>Cafétéria Atrium</nom>
		</element>
		<element id="161" type="crous">
			<longitude>2.343178</longitude>
			<latitude>48.845048</latitude>
			<adresse>11 rue Pierre et Marie Curie 75005 Paris</adresse>
			<nom>Cafétéria Poincaré (Henri)</nom>
		</element>
		<element id="162" type="crous">
			<longitude>2.3448603</longitude>
			<latitude>48.8468057</latitude>
			<adresse>12 place du Panthéon 75005 Paris</adresse>
			<nom>Cafétéria Lacretelle</nom>
		</element>
		<element id="163" type="crous">
			<longitude>2.3373625</longitude>
			<latitude>48.8401746</latitude>
			<adresse>39 avenue Georges Bernanos 75005 Paris</adresse>
			<nom>RU Bullier</nom>
		</element>
		<element id="164" type="crous">
			<longitude>2.344959</longitude>
			<latitude>48.847053</latitude>
			<adresse>12 place du Panthéon 75005 Paris</adresse>
			<nom>Cafétéria Panthéon</nom>
		</element>
		<element id="165" type="preservatifs">
			<latitude>48.840319</latitude>
			<longitude>2.350767</longitude>
			<adresse>6 Place Bernard Halphen</adresse>
			<nom>Gymnase Patriarches</nom>
		</element>
		<element id="166" type="cinema">
			<latitude>48.848384</latitude>
			<longitude>2.348973</longitude>
			<adresse>23 RUE DES ECOLES</adresse>
			<nom>LE DESPERADO 1</nom>
		</element>
		<element id="167" type="cinema">
			<latitude>48.847537</latitude>
			<longitude>2.352122</longitude>
			<adresse>5 RUE DES ECOLES</adresse>
			<nom>LE GRAND ACTION 1</nom>
		</element>
		<element id="168" type="cinema">
			<latitude>48.849504</latitude>
			<longitude>2.342788</longitude>
			<adresse>9 RUE CHAMPOLLION</adresse>
			<nom>QUARTIER LATIN 1</nom>
		</element>
		<element id="169" type="cinema">
			<latitude>48.842733</latitude>
			<longitude>2.342044</longitude>
			<adresse>10 RUE DES URSULINES</adresse>
			<nom>STUDIO DES URSULINES</nom>
		</element>
		<element id="170" type="cinema">
			<latitude>48.847502</latitude>
			<longitude>2.342301</longitude>
			<adresse>13 RUE VICTOR COUSIN</adresse>
			<nom>LE CINEMA DU PANTHEON</nom>
		</element>
		<element id="171" type="cinema">
			<latitude>48.849591</latitude>
			<longitude>2.342836</longitude>
			<adresse>7 RUE CHAMPOLLION</adresse>
			<nom>REFLET MEDICIS 1</nom>
		</element>
		<element id="172" type="cinema">
			<latitude>48.841535</latitude>
			<longitude>2.34958</longitude>
			<adresse>100 RUE MOUFFETARD</adresse>
			<nom>EPEE DE BOIS 1</nom>
		</element>
		<element id="173" type="cinema">
			<latitude>48.84815</latitude>
			<longitude>2.341975</longitude>
			<adresse>20 RUE CUJAS</adresse>
			<nom>ACCATONE</nom>
		</element>
		<element id="174" type="cinema">
			<latitude>48.853093</latitude>
			<longitude>2.344228</longitude>
			<adresse>7 PLACE ST MICHEL</adresse>
			<nom>ESPACE SAINT MICHEL 1</nom>
		</element>
		<element id="175" type="cinema">
			<latitude>48.849983</latitude>
			<longitude>2.343211</longitude>
			<adresse>51 RUE DES ECOLES</adresse>
			<nom>LE CHAMPO SALLE 1</nom>
		</element>
		<element id="176" type="cinema">
			<latitude>48.841154</latitude>
			<longitude>2.353269</longitude>
			<adresse>21 RUE CLEF 34 RUE DAUBENTON</adresse>
			<nom>LA CLEF 1</nom>
		</element>
		<element id="177" type="cinema">
			<latitude>48.851619</latitude>
			<longitude>2.347076</longitude>
			<adresse>42 RUE GALANDE</adresse>
			<nom>STUDIO GALANDE</nom>
		</element>
		<element id="178" type="bibli">
			<longitude>2.3451014</longitude>
			<latitude>48.8520496</latitude>
			<adresse>6, RUE DES PRETRES SAINT-SEVERIN</adresse>
			<nom>bibliotheque municipale l'heure joyeuse</nom>
		</element>
		<element id="179" type="marche">
			<latitude>48.849846</latitude>
			<longitude>2.34847</longitude>
			<adresse>Place Maubert 75005 Paris, France</adresse>
			<nom>MAUBERT</nom>
		</element>
		<element id="180" type="marche">
			<latitude>48.837147</latitude>
			<longitude>2.348437</longitude>
			<adresse>Bd Port Royal 75005 Paris, France</adresse>
			<nom>PORT ROYAL</nom>
		</element>
		<element id="181" type="marche">
			<latitude>48.843224</latitude>
			<longitude>2.35144</longitude>
			<adresse>Place Monge 75005 Paris, France</adresse>
			<nom>MONGE</nom>
		</element>
		<element id="182" type="bar">
			<latitude>48.8449764</latitude>
			<longitude>2.3549028</longitude>
			<adresse>Rue Guy de la Brosse, St-Victor, 5e</adresse>
			<nom>Chez Michel</nom>
		</element>
		<element id="183" type="bar">
			<latitude>48.8490395</latitude>
			<longitude>2.348557</longitude>
			<adresse>Rue de la Montagne Sainte-Geneviève, Sorbonne, 5e</adresse>
			<nom>Dupont Versailles</nom>
		</element>
		<element id="184" type="bar">
			<latitude>48.8525447</latitude>
			<longitude>2.3466628</longitude>
			<adresse>Rue du Petit Pont, Sorbonne, 5e</adresse>
			<nom>L'Alibi</nom>
		</element>
		<element id="185" type="bar">
			<latitude>48.850854</latitude>
			<longitude>2.3477158</longitude>
			<adresse>Rue des Anglais, Sorbonne, 5e</adresse>
			<nom>L'Europe</nom>
		</element>
		<element id="186" type="bar">
			<latitude>48.8457908</latitude>
			<longitude>2.3539346</longitude>
			<adresse>Rue des Boulangers, St-Victor, 5e</adresse>
			<nom>Le Bistrot des Artistes</nom>
		</element>
		<element id="187" type="bar">
			<latitude>48.845275</latitude>
			<longitude>2.3491659</longitude>
			<adresse>45, Rue Descartes, 5e Arrondissement, 5e</adresse>
			<nom>Finnegan's Wake</nom>
		</element>
		<element id="188" type="bar">
			<latitude>48.853075</latitude>
			<longitude>2.3455319</longitude>
			<adresse>20, Rue de la Huchette, Ilot Saint-Severin, Sorbonne, 5e</adresse>
			<nom>Mc Brides</nom>
		</element>
		<element id="189" type="bar">
			<latitude>48.8423393</latitude>
			<longitude>2.3498473</longitude>
			<adresse>Rue Mouffetard, 5e Arrondissement, 5e</adresse>
			<nom>The Frog &amp; Rosbif</nom>
		</element>
		<element id="190" type="bar">
			<latitude>48.8474266</latitude>
			<longitude>2.3471508</longitude>
			<adresse>18, Rue Laplace, Sorbonne, 5e</adresse>
			<nom>Le Vieux Chêne</nom>
		</element>
		<element id="191" type="bar">
			<latitude>48.8424716</latitude>
			<longitude>2.3498216</longitude>
			<adresse>Rue Mouffetard, 5e Arrondissement, 5e</adresse>
			<nom>Le Sully</nom>
		</element>
		<element id="192" type="bar">
			<latitude>48.8442543</latitude>
			<longitude>2.3498652</longitude>
			<adresse>51, Rue Lacépède, 5e Arrondissement, 5e</adresse>
			<nom>Margen's Pub</nom>
		</element>
		<element id="193" type="bar">
			<latitude>48.8430061</latitude>
			<longitude>2.3486843</longitude>
			<adresse>16, Rue du Pot de Fer, Val-de-Grâce, 5e</adresse>
			<nom>Le Calbar</nom>
		</element>
		<element id="194" type="bar">
			<latitude>48.8456039</latitude>
			<longitude>2.3547969</longitude>
			<adresse>Place Jussieu, St-Victor, 5e</adresse>
			<nom>Black Mad Crawler</nom>
		</element>
		<element id="195" type="bar">
			<latitude>48.8457052</latitude>
			<longitude>2.3419808</longitude>
			<adresse>Rue Royer-Collard, Val-de-Grâce, 5e</adresse>
			<nom>Le Festin Nu</nom>
		</element>
		<element id="196" type="bar">
			<latitude>48.8462166</latitude>
			<longitude>2.342933</longitude>
			<adresse>Rue Malebranche, 5e Arrondissement, 5e</adresse>
			<nom>L'Iris</nom>
		</element>
		<element id="197" type="bar">
			<latitude>48.848301</latitude>
			<longitude>2.3417712</longitude>
			<adresse>Rue Cujas, Sorbonne, 5e</adresse>
			<nom>Le Troll</nom>
		</element>
		<element id="198" type="bar">
			<latitude>48.8451034</latitude>
			<longitude>2.3492463</longitude>
			<adresse>49, Rue Descartes, 5e Arrondissement, 5e</adresse>
			<nom>Le Rota</nom>
		</element>
		<element id="199" type="bar">
			<latitude>48.8433232</latitude>
			<longitude>2.3528098</longitude>
			<adresse>Rue de la Clef, Jardin des Plantes, 5e</adresse>
			<nom>Lounge Paradise</nom>
		</element>
		<element id="200" type="cafe">
			<latitude>48.849293</latitude>
			<longitude>2.354486</longitude>
			<adresse>11 boulevard Saint-Germain</adresse>
			<nom>Cardinal Saint-Germain</nom>
		</element>
		<element id="201" type="cafe">
			<latitude>48.841089</latitude>
			<longitude>2.349565</longitude>
			<adresse>104 rue Mouffetard</adresse>
			<nom>Le Tournebride</nom>
		</element>
		<element id="202" type="cafe">
			<latitude>48.842833</latitude>
			<longitude>2.348314</longitude>
			<adresse>13 Rue du Pot de Fer</adresse>
			<nom>La Montagne Sans Geneviève</nom>
		</element>
		<element id="203" type="cafe">
			<latitude>48.850311</latitude>
			<longitude>2.34885</longitude>
			<adresse>place maubert</adresse>
			<nom>le ronsard</nom>
		</element>
		<element id="204" type="cafe">
			<latitude>48.844854</latitude>
			<longitude>2.345413</longitude>
			<adresse>10 rue d"Ulm</adresse>
			<nom>Waikiki</nom>
		</element>
		<element id="205" type="cafe">
			<latitude>48.839687</latitude>
			<longitude>2.347254</longitude>
			<adresse>35 rue Claude Bernard</adresse>
			<nom>Le Café d'avant</nom>
		</element>
		<element id="206" type="cafe">
			<latitude>48.838633</latitude>
			<longitude>2.349916</longitude>
			<adresse>5 rue Claude Bernard</adresse>
			<nom>Café Lea</nom>
		</element>
		<element id="207" type="cafe">
			<latitude>48.849821</latitude>
			<longitude>2.355337</longitude>
			<adresse>11 Quai de la Tournelle</adresse>
			<nom>Café rallye tournelles</nom>
		</element>
		<element id="208" type="cafe">
			<latitude>48.841526</latitude>
			<longitude>2.351012</longitude>
			<adresse>7 rue Epée de Bois</adresse>
			<nom>Invitez vous chez nous</nom>
		</element>
		<element id="209" type="cafe">
			<latitude>48.845458</latitude>
			<longitude>2.354796</longitude>
			<adresse>22 rue Linné</adresse>
			<nom>L'Inévitable</nom>
		</element>
		<element id="210" type="cafe">
			<latitude>48.845047</latitude>
			<longitude>2.349583</longitude>
			<adresse>1 rue Thouin</adresse>
			<nom>Le Descartes</nom>
		</element>
		<element id="211" type="cafe">
			<latitude>48.840624</latitude>
			<longitude>2.349766</longitude>
			<adresse>111 rue mouffetard</adresse>
			<nom>La Brûlerie des Ternes</nom>
		</element>
	</arrondissement>
	<arrondissement num="75006">
		<element id="212" type="cinema">
			<latitude>48.85467</latitude>
			<longitude>2.333052</longitude>
			<adresse>22 RUE GUILLAUME APOLLINAIRE</adresse>
			<nom>ST GERMAIN DES PRES</nom>
		</element>
		<element id="213" type="cinema">
			<latitude>48.84824</latitude>
			<longitude>2.340797</longitude>
			<adresse>67 69 RUE MONSIEUR LE PRINCE</adresse>
			<nom>LUXEMBOURG 1</nom>
		</element>
		<element id="214" type="cinema">
			<latitude>48.852437</latitude>
			<longitude>2.338266</longitude>
			<adresse>113 BOULEVARD ST GERMAIN</adresse>
			<nom>MK2 ODEON 2</nom>
		</element>
		<element id="215" type="cinema">
			<latitude>48.842813</latitude>
			<longitude>2.330525</longitude>
			<adresse>11 RUE JULES CHAPLAIN</adresse>
			<nom>MK2 PARNASSE 1</nom>
		</element>
		<element id="216" type="cinema">
			<latitude>48.852188</latitude>
			<longitude>2.342788</longitude>
			<adresse>7 RUE HAUTEFEUILLE</adresse>
			<nom>MK2 HAUTEFEUILLE 1</nom>
		</element>
		<element id="217" type="cinema">
			<latitude>48.852353</latitude>
			<longitude>2.339834</longitude>
			<adresse>124 BOULEVARD ST GERMAIN</adresse>
			<nom>UGC ODEON 2</nom>
		</element>
		<element id="218" type="cinema">
			<latitude>48.851278</latitude>
			<longitude>2.330648</longitude>
			<adresse>76 RUE DE RENNES</adresse>
			<nom>L'ARLEQUIN PANORAMA</nom>
		</element>
		<element id="219" type="cinema">
			<latitude>48.852138</latitude>
			<longitude>2.338995</longitude>
			<adresse>99 BOULEVARD ST GERMAIN</adresse>
			<nom>UGC DANTON 1</nom>
		</element>
		<element id="220" type="cinema">
			<latitude>48.853442</latitude>
			<longitude>2.340503</longitude>
			<adresse>3O RUE ST ANDRE DES ARTS</adresse>
			<nom>SAINT ANDRE DES ARTS 1</nom>
		</element>
		<element id="221" type="cinema">
			<latitude>48.850764</latitude>
			<longitude>2.341747</longitude>
			<adresse>6 RUE DE L ECOLE DE MEDECINE</adresse>
			<nom>NOUVEL ODEON</nom>
		</element>
		<element id="222" type="cinema">
			<latitude>48.842318</latitude>
			<longitude>2.328975</longitude>
			<adresse>103 BOULEVARD DU MONTPARNASSE</adresse>
			<nom>UGC ROTONDE 1</nom>
		</element>
		<element id="223" type="cinema">
			<latitude>48.84351</latitude>
			<longitude>2.325646</longitude>
			<adresse>83 BOULEVARDD DU MONTPARNASSE</adresse>
			<nom>UGC MONTPARNASSE 1</nom>
		</element>
		<element id="224" type="cinema">
			<latitude>48.854455</latitude>
			<longitude>2.340132</longitude>
			<adresse>4 RUE CHRISTINE</adresse>
			<nom>STUDIO CHRISTINE 1</nom>
		</element>
		<element id="225" type="cinema">
			<latitude>48.844244</latitude>
			<longitude>2.330407</longitude>
			<adresse>53 RUE NOTRE DAME DES CHAMPS</adresse>
			<nom>LUCERNAIRE FORUM GRANDE SAL</nom>
		</element>
		<element id="226" type="cinema">
			<latitude>48.843752</latitude>
			<longitude>2.324925</longitude>
			<adresse>73 BOULEVARD DU MONTPARNASSE</adresse>
			<nom>BRETAGNE 1</nom>
		</element>
		<element id="227" type="cafe">
			<latitude>48.852053</latitude>
			<longitude>2.338779</longitude>
			<adresse>3 carrefour de l'Odéon</adresse>
			<nom>L'avant comptoir</nom>
		</element>
		<element id="228" type="cafe">
			<latitude>48.844057</latitude>
			<longitude>2.328402</longitude>
			<adresse>6/8 rue Stanislas</adresse>
			<nom>Les Vendangeurs</nom>
		</element>
		<element id="229" type="cafe">
			<latitude>48.850316</latitude>
			<longitude>2.330101</longitude>
			<adresse>16 rue DE MEZIERES</adresse>
			<nom>L'antre d'eux</nom>
		</element>
		<element id="230" type="cafe">
			<latitude>48.844244</latitude>
			<longitude>2.330407</longitude>
			<adresse>53 rue Notre-Dame des Champs</adresse>
			<nom>Le Lucernaire</nom>
		</element>
		<element id="231" type="marche">
			<latitude>48.842701</latitude>
			<longitude>2.32947</longitude>
			<adresse>Boulevard Raspail 75006 Paris, France</adresse>
			<nom>RASPAIL</nom>
		</element>
		<element id="232" type="marche">
			<latitude>48.842701</latitude>
			<longitude>2.32947</longitude>
			<adresse>Bd Raspail 75006 Paris, France</adresse>
			<nom>RASPAIL</nom>
		</element>
		<element id="233" type="marche">
			<latitude>48.851711</latitude>
			<longitude>2.33646</longitude>
			<adresse>4/8, Rue Lobineau 75006 Paris, France</adresse>
			<nom>Saint Germain</nom>
		</element>
		<element id="234" type="crous">
			<longitude>2.333887</longitude>
			<latitude>48.843805</latitude>
			<adresse>92 rue d'Assas 75006 Paris</adresse>
			<nom>Cafétéria Assas</nom>
		</element>
		<element id="235" type="crous">
			<longitude>2.328286</longitude>
			<latitude>48.854466</latitude>
			<adresse>27 rue Saint Guillaume et 56 rue Saint- Pères 75006 Paris</adresse>
			<nom>Cafétéria Sciences Po</nom>
		</element>
		<element id="236" type="crous">
			<longitude>2.339122</longitude>
			<latitude>48.854014</latitude>
			<adresse>5-5 rue Mazet  75006 Paris</adresse>
			<nom>RU Mazet</nom>
		</element>
		<element id="237" type="crous">
			<longitude>2.330711</longitude>
			<latitude>48.85544</latitude>
			<adresse>45 rue des Saints-Pères 75006 Paris</adresse>
			<nom>Cafétéria Saints-Pères</nom>
		</element>
		<element id="238" type="crous">
			<longitude>2.336376</longitude>
			<latitude>48.843706</latitude>
			<adresse>4 avenue de l'Observatoire 75006 Paris</adresse>
			<nom>Cafétéria Pharmacie</nom>
		</element>
		<element id="239" type="crous">
			<longitude>2.335217</longitude>
			<latitude>48.852207</latitude>
			<adresse>3 rue Mabillon  75006 Paris</adresse>
			<nom>RU Mabillon</nom>
		</element>
		<element id="240" type="crous">
			<longitude>2.329423</longitude>
			<latitude>48.848465</latitude>
			<adresse>21 rue d'Assas 75006 Paris</adresse>
			<nom>Cafétéria Institut Catholique de Paris</nom>
		</element>
		<element id="241" type="crous">
			<longitude>2.333887</longitude>
			<latitude>48.843805</latitude>
			<adresse>92 rue d'Assas 75006 Paris</adresse>
			<nom>Cafétéria Assas</nom>
		</element>
		<element id="242" type="crous">
			<longitude>2.328286</longitude>
			<latitude>48.854466</latitude>
			<adresse>27 rue Saint Guillaume et 56 rue Saint- Pères 75006 Paris</adresse>
			<nom>Cafétéria Sciences Po</nom>
		</element>
		<element id="243" type="crous">
			<longitude>2.339122</longitude>
			<latitude>48.854014</latitude>
			<adresse>5-5 rue Mazet  75006 Paris</adresse>
			<nom>RU Mazet</nom>
		</element>
		<element id="244" type="crous">
			<longitude>2.330711</longitude>
			<latitude>48.85544</latitude>
			<adresse>45 rue des Saints-Pères 75006 Paris</adresse>
			<nom>Cafétéria Saints-Pères</nom>
		</element>
		<element id="245" type="crous">
			<longitude>2.336376</longitude>
			<latitude>48.843706</latitude>
			<adresse>4 avenue de l'Observatoire 75006 Paris</adresse>
			<nom>Cafétéria Pharmacie</nom>
		</element>
		<element id="246" type="crous">
			<longitude>2.335217</longitude>
			<latitude>48.852207</latitude>
			<adresse>3 rue Mabillon  75006 Paris</adresse>
			<nom>RU Mabillon</nom>
		</element>
		<element id="247" type="crous">
			<longitude>2.329423</longitude>
			<latitude>48.848465</latitude>
			<adresse>21 rue d'Assas 75006 Paris</adresse>
			<nom>Cafétéria Institut Catholique de Paris</nom>
		</element>
		<element id="248" type="cinema">
			<latitude>48.85467</latitude>
			<longitude>2.333052</longitude>
			<adresse>22 RUE GUILLAUME APOLLINAIRE</adresse>
			<nom>ST GERMAIN DES PRES</nom>
		</element>
		<element id="249" type="cinema">
			<latitude>48.84824</latitude>
			<longitude>2.340797</longitude>
			<adresse>67 69 RUE MONSIEUR LE PRINCE</adresse>
			<nom>LUXEMBOURG 1</nom>
		</element>
		<element id="250" type="cinema">
			<latitude>48.852437</latitude>
			<longitude>2.338266</longitude>
			<adresse>113 BOULEVARD ST GERMAIN</adresse>
			<nom>MK2 ODEON 2</nom>
		</element>
		<element id="251" type="cinema">
			<latitude>48.842813</latitude>
			<longitude>2.330525</longitude>
			<adresse>11 RUE JULES CHAPLAIN</adresse>
			<nom>MK2 PARNASSE 1</nom>
		</element>
		<element id="252" type="cinema">
			<latitude>48.852188</latitude>
			<longitude>2.342788</longitude>
			<adresse>7 RUE HAUTEFEUILLE</adresse>
			<nom>MK2 HAUTEFEUILLE 1</nom>
		</element>
		<element id="253" type="cinema">
			<latitude>48.852353</latitude>
			<longitude>2.339834</longitude>
			<adresse>124 BOULEVARD ST GERMAIN</adresse>
			<nom>UGC ODEON 2</nom>
		</element>
		<element id="254" type="cinema">
			<latitude>48.851278</latitude>
			<longitude>2.330648</longitude>
			<adresse>76 RUE DE RENNES</adresse>
			<nom>L'ARLEQUIN PANORAMA</nom>
		</element>
		<element id="255" type="cinema">
			<latitude>48.852138</latitude>
			<longitude>2.338995</longitude>
			<adresse>99 BOULEVARD ST GERMAIN</adresse>
			<nom>UGC DANTON 1</nom>
		</element>
		<element id="256" type="cinema">
			<latitude>48.853442</latitude>
			<longitude>2.340503</longitude>
			<adresse>3O RUE ST ANDRE DES ARTS</adresse>
			<nom>SAINT ANDRE DES ARTS 1</nom>
		</element>
		<element id="257" type="cinema">
			<latitude>48.850764</latitude>
			<longitude>2.341747</longitude>
			<adresse>6 RUE DE L ECOLE DE MEDECINE</adresse>
			<nom>NOUVEL ODEON</nom>
		</element>
		<element id="258" type="cinema">
			<latitude>48.842318</latitude>
			<longitude>2.328975</longitude>
			<adresse>103 BOULEVARD DU MONTPARNASSE</adresse>
			<nom>UGC ROTONDE 1</nom>
		</element>
		<element id="259" type="cinema">
			<latitude>48.84351</latitude>
			<longitude>2.325646</longitude>
			<adresse>83 BOULEVARDD DU MONTPARNASSE</adresse>
			<nom>UGC MONTPARNASSE 1</nom>
		</element>
		<element id="260" type="cinema">
			<latitude>48.854455</latitude>
			<longitude>2.340132</longitude>
			<adresse>4 RUE CHRISTINE</adresse>
			<nom>STUDIO CHRISTINE 1</nom>
		</element>
		<element id="261" type="cinema">
			<latitude>48.844244</latitude>
			<longitude>2.330407</longitude>
			<adresse>53 RUE NOTRE DAME DES CHAMPS</adresse>
			<nom>LUCERNAIRE FORUM GRANDE SAL</nom>
		</element>
		<element id="262" type="cinema">
			<latitude>48.843752</latitude>
			<longitude>2.324925</longitude>
			<adresse>73 BOULEVARD DU MONTPARNASSE</adresse>
			<nom>BRETAGNE 1</nom>
		</element>
		<element id="263" type="marche">
			<latitude>48.842701</latitude>
			<longitude>2.32947</longitude>
			<adresse>Boulevard Raspail 75006 Paris, France</adresse>
			<nom>RASPAIL</nom>
		</element>
		<element id="264" type="marche">
			<latitude>48.842701</latitude>
			<longitude>2.32947</longitude>
			<adresse>Bd Raspail 75006 Paris, France</adresse>
			<nom>RASPAIL</nom>
		</element>
		<element id="265" type="marche">
			<latitude>48.851711</latitude>
			<longitude>2.33646</longitude>
			<adresse>4/8, Rue Lobineau 75006 Paris, France</adresse>
			<nom>Saint Germain</nom>
		</element>
		<element id="266" type="bar">
			<latitude>48.8522792</latitude>
			<longitude>2.3345573</longitude>
			<adresse>Rue Princesse, Odéon, 6e</adresse>
			<nom>Le Bouillon St Stef</nom>
		</element>
		<element id="267" type="bar">
			<latitude>48.8536005</latitude>
			<longitude>2.3428569</longitude>
			<adresse>Rue de l'Hirondelle, Monnaie, 6e</adresse>
			<nom>The Frog at Bercy Village</nom>
		</element>
		<element id="268" type="cafe">
			<latitude>48.852053</latitude>
			<longitude>2.338779</longitude>
			<adresse>3 carrefour de l'Odéon</adresse>
			<nom>L'avant comptoir</nom>
		</element>
		<element id="269" type="cafe">
			<latitude>48.844057</latitude>
			<longitude>2.328402</longitude>
			<adresse>6/8 rue Stanislas</adresse>
			<nom>Les Vendangeurs</nom>
		</element>
		<element id="270" type="cafe">
			<latitude>48.850316</latitude>
			<longitude>2.330101</longitude>
			<adresse>16 rue DE MEZIERES</adresse>
			<nom>L'antre d'eux</nom>
		</element>
		<element id="271" type="cafe">
			<latitude>48.844244</latitude>
			<longitude>2.330407</longitude>
			<adresse>53 rue Notre-Dame des Champs</adresse>
			<nom>Le Lucernaire</nom>
		</element>
	</arrondissement>
	<arrondissement num="75007">
		<element id="272" type="cinema">
			<latitude>48.851726</latitude>
			<longitude>2.316361</longitude>
			<adresse>57 BIS RUE DE BABYLONE</adresse>
			<nom>LA PAGODE 1</nom>
		</element>
		<element id="273" type="cafe">
			<latitude>48.859031</latitude>
			<longitude>2.320315</longitude>
			<adresse>31 rue Saint-Dominique</adresse>
			<nom>Le Square</nom>
		</element>
		<element id="274" type="cafe">
			<latitude>48.856003</latitude>
			<longitude>2.30457</longitude>
			<adresse>46 avenue Bosquet</adresse>
			<nom>Le Bosquet</nom>
		</element>
		<element id="275" type="cafe">
			<latitude>48.859559</latitude>
			<longitude>2.30643</longitude>
			<adresse>88 rue Saint-Dominique</adresse>
			<nom>Le Malar</nom>
		</element>
		<element id="276" type="cafe">
			<latitude>48.857658</latitude>
			<longitude>2.305613</longitude>
			<adresse>188 rue de Grenelle</adresse>
			<nom>Cafe de grenelle</nom>
		</element>
		<element id="277" type="cafe">
			<latitude>48.862599</latitude>
			<longitude>2.315086</longitude>
			<adresse>2 rue Robert Esnault Pelterie</adresse>
			<nom>Café dans l'aerogare Air France Invalides</nom>
		</element>
		<element id="278" type="cafe">
			<latitude>48.85413</latitude>
			<longitude>2.323539</longitude>
			<adresse>36 rue de Varenne</adresse>
			<nom>Café Varenne</nom>
		</element>
		<element id="279" type="marche">
			<latitude>48.849121</latitude>
			<longitude>2.30901</longitude>
			<adresse>17 av. de Saxe 75007 Paris, France</adresse>
			<nom>SAXE BRETEUIL</nom>
		</element>
		<element id="280" type="cinema">
			<latitude>48.851726</latitude>
			<longitude>2.316361</longitude>
			<adresse>57 BIS RUE DE BABYLONE</adresse>
			<nom>LA PAGODE 1</nom>
		</element>
		<element id="281" type="marche">
			<latitude>48.849121</latitude>
			<longitude>2.30901</longitude>
			<adresse>17 av. de Saxe 75007 Paris, France</adresse>
			<nom>SAXE BRETEUIL</nom>
		</element>
		<element id="282" type="cafe">
			<latitude>48.859031</latitude>
			<longitude>2.320315</longitude>
			<adresse>31 rue Saint-Dominique</adresse>
			<nom>Le Square</nom>
		</element>
		<element id="283" type="cafe">
			<latitude>48.856003</latitude>
			<longitude>2.30457</longitude>
			<adresse>46 avenue Bosquet</adresse>
			<nom>Le Bosquet</nom>
		</element>
		<element id="284" type="cafe">
			<latitude>48.859559</latitude>
			<longitude>2.30643</longitude>
			<adresse>88 rue Saint-Dominique</adresse>
			<nom>Le Malar</nom>
		</element>
		<element id="285" type="cafe">
			<latitude>48.857658</latitude>
			<longitude>2.305613</longitude>
			<adresse>188 rue de Grenelle</adresse>
			<nom>Cafe de grenelle</nom>
		</element>
		<element id="286" type="cafe">
			<latitude>48.862599</latitude>
			<longitude>2.315086</longitude>
			<adresse>2 rue Robert Esnault Pelterie</adresse>
			<nom>Café dans l'aerogare Air France Invalides</nom>
		</element>
		<element id="287" type="cafe">
			<latitude>48.85413</latitude>
			<longitude>2.323539</longitude>
			<adresse>36 rue de Varenne</adresse>
			<nom>Café Varenne</nom>
		</element>
	</arrondissement>
	<arrondissement num="75008">
		<element id="288" type="cinema">
			<latitude>48.869654</latitude>
			<longitude>2.306873</longitude>
			<adresse>27/33 AVENUE DES CHAMPS ELYSEES</adresse>
			<nom>GAUMONT CHAMPS ELYSEES MARIGNAN 3</nom>
		</element>
		<element id="289" type="cinema">
			<latitude>48.870512</latitude>
			<longitude>2.303157</longitude>
			<adresse>14 RUE LINCOLN</adresse>
			<nom>ELYSEES LINCOLN 1</nom>
		</element>
		<element id="290" type="cinema">
			<latitude>48.873073</latitude>
			<longitude>2.298394</longitude>
			<adresse>146 AVENUE DES CHAMPS ELYSEES</adresse>
			<nom>GEORGE V 4</nom>
		</element>
		<element id="291" type="cinema">
			<latitude>48.872794</latitude>
			<longitude>2.296984</longitude>
			<adresse>133 AVENUE DES CHAMPS ELYSEES</adresse>
			<nom>PUBLICIS CINEMA 2</nom>
		</element>
		<element id="292" type="cinema">
			<latitude>48.870374</latitude>
			<longitude>2.306888</longitude>
			<adresse>50 AVENUE DES CHAMPS ELYSEES</adresse>
			<nom>GAUMONT CHAMPS ELYSEES AMBASSADE 7</nom>
		</element>
		<element id="293" type="cinema">
			<latitude>48.872265</latitude>
			<longitude>2.300938</longitude>
			<adresse>116 AVENUE DES CHAMPS ELYSEES</adresse>
			<nom>UGC NORMANDIE 2</nom>
		</element>
		<element id="294" type="cinema">
			<latitude>48.870843</latitude>
			<longitude>2.304317</longitude>
			<adresse>GRAND PALAIS CHAMPS ELYSEES</adresse>
			<nom>MK2 GRAND PALAIS</nom>
		</element>
		<element id="295" type="cinema">
			<latitude>48.874832</latitude>
			<longitude>2.323941</longitude>
			<adresse>44 RUE PASQUIER</adresse>
			<nom>SAINT LAZARE PASQUIER 1</nom>
		</element>
		<element id="296" type="cinema">
			<latitude>48.872431</latitude>
			<longitude>2.299525</longitude>
			<adresse>1 RUE BALZAC</adresse>
			<nom>BALZAC 1</nom>
		</element>
		<element id="297" type="cafe">
			<latitude>48.877635</latitude>
			<longitude>2.312777</longitude>
			<adresse>rue de Lisbonne</adresse>
			<nom>Café de la Mairie (du VIII)</nom>
		</element>
		<element id="298" type="cafe">
			<latitude>48.875322</latitude>
			<longitude>2.312329</longitude>
			<adresse>146, boulevard Haussmann</adresse>
			<nom>Le Relais Haussmann</nom>
		</element>
		<element id="299" type="cafe">
			<latitude>48.872202</latitude>
			<longitude>2.304624</longitude>
			<adresse>61 rue de Ponthieu</adresse>
			<nom>Les Arcades</nom>
		</element>
		<element id="300" type="cafe">
			<latitude>48.872677</latitude>
			<longitude>2.315276</longitude>
			<adresse>27 rue de Penthièvre</adresse>
			<nom>O'Breizh</nom>
		</element>
		<element id="301" type="cafe">
			<latitude>48.87226</latitude>
			<longitude>2.304441</longitude>
			<adresse>63 rue de Ponthieu</adresse>
			<nom>Le Fronton</nom>
		</element>
		<element id="302" type="cafe">
			<latitude>48.871002</latitude>
			<longitude>2.30879</longitude>
			<adresse>28 rue de Ponthieu</adresse>
			<nom>L'Angle</nom>
		</element>
		<element id="303" type="cafe">
			<latitude>48.871799</latitude>
			<longitude>2.315985</longitude>
			<adresse>9 rue de Miromesnil</adresse>
			<nom>Café beauveau</nom>
		</element>
		<element id="304" type="marche">
			<latitude>48.86948</latitude>
			<longitude>2.31503</longitude>
			<adresse>Avenue de Marigny 75008 Paris, France</adresse>
			<nom>CARRE MARIGNY</nom>
		</element>
		<element id="305" type="marche">
			<latitude>48.8708</latitude>
			<longitude>2.325134</longitude>
			<adresse>Place de la Madeleine 75008 Paris, France</adresse>
			<nom>MADELEINE</nom>
		</element>
		<element id="306" type="marche">
			<latitude>48.877171</latitude>
			<longitude>2.31489</longitude>
			<adresse>1, Rue Corvetto 75008 Paris, France</adresse>
			<nom>Treilhard</nom>
		</element>
		<element id="307" type="marche">
			<latitude>48.882229</latitude>
			<longitude>2.321756</longitude>
			<adresse>Boulevard des Batignolles 75008 Paris, France</adresse>
			<nom>BATIGNOLES</nom>
		</element>
		<element id="308" type="marche">
			<latitude>48.8708</latitude>
			<longitude>2.325134</longitude>
			<adresse>Place de la Madeleine 75008 Paris, France</adresse>
			<nom>AGUESSEAU</nom>
		</element>
		<element id="309" type="bibli">
			<longitude>2.3029806</longitude>
			<latitude>48.8778252</latitude>
			<adresse>17, AVENUE BEAUCOUR</adresse>
			<nom>bibliotheque municipale courcelles</nom>
		</element>
		<element id="310" type="cinema">
			<latitude>48.869654</latitude>
			<longitude>2.306873</longitude>
			<adresse>27/33 AVENUE DES CHAMPS ELYSEES</adresse>
			<nom>GAUMONT CHAMPS ELYSEES MARIGNAN 3</nom>
		</element>
		<element id="311" type="cinema">
			<latitude>48.870512</latitude>
			<longitude>2.303157</longitude>
			<adresse>14 RUE LINCOLN</adresse>
			<nom>ELYSEES LINCOLN 1</nom>
		</element>
		<element id="312" type="cinema">
			<latitude>48.873073</latitude>
			<longitude>2.298394</longitude>
			<adresse>146 AVENUE DES CHAMPS ELYSEES</adresse>
			<nom>GEORGE V 4</nom>
		</element>
		<element id="313" type="cinema">
			<latitude>48.872794</latitude>
			<longitude>2.296984</longitude>
			<adresse>133 AVENUE DES CHAMPS ELYSEES</adresse>
			<nom>PUBLICIS CINEMA 2</nom>
		</element>
		<element id="314" type="cinema">
			<latitude>48.870374</latitude>
			<longitude>2.306888</longitude>
			<adresse>50 AVENUE DES CHAMPS ELYSEES</adresse>
			<nom>GAUMONT CHAMPS ELYSEES AMBASSADE 7</nom>
		</element>
		<element id="315" type="cinema">
			<latitude>48.872265</latitude>
			<longitude>2.300938</longitude>
			<adresse>116 AVENUE DES CHAMPS ELYSEES</adresse>
			<nom>UGC NORMANDIE 2</nom>
		</element>
		<element id="316" type="cinema">
			<latitude>48.870843</latitude>
			<longitude>2.304317</longitude>
			<adresse>GRAND PALAIS CHAMPS ELYSEES</adresse>
			<nom>MK2 GRAND PALAIS</nom>
		</element>
		<element id="317" type="cinema">
			<latitude>48.874832</latitude>
			<longitude>2.323941</longitude>
			<adresse>44 RUE PASQUIER</adresse>
			<nom>SAINT LAZARE PASQUIER 1</nom>
		</element>
		<element id="318" type="cinema">
			<latitude>48.872431</latitude>
			<longitude>2.299525</longitude>
			<adresse>1 RUE BALZAC</adresse>
			<nom>BALZAC 1</nom>
		</element>
		<element id="319" type="bibli">
			<longitude>2.3029806</longitude>
			<latitude>48.8778252</latitude>
			<adresse>17, AVENUE BEAUCOUR</adresse>
			<nom>bibliotheque municipale courcelles</nom>
		</element>
		<element id="320" type="marche">
			<latitude>48.86948</latitude>
			<longitude>2.31503</longitude>
			<adresse>Avenue de Marigny 75008 Paris, France</adresse>
			<nom>CARRE MARIGNY</nom>
		</element>
		<element id="321" type="marche">
			<latitude>48.8708</latitude>
			<longitude>2.325134</longitude>
			<adresse>Place de la Madeleine 75008 Paris, France</adresse>
			<nom>MADELEINE</nom>
		</element>
		<element id="322" type="marche">
			<latitude>48.877171</latitude>
			<longitude>2.31489</longitude>
			<adresse>1, Rue Corvetto 75008 Paris, France</adresse>
			<nom>Treilhard</nom>
		</element>
		<element id="323" type="marche">
			<latitude>48.882229</latitude>
			<longitude>2.321756</longitude>
			<adresse>Boulevard des Batignolles 75008 Paris, France</adresse>
			<nom>BATIGNOLES</nom>
		</element>
		<element id="324" type="marche">
			<latitude>48.8708</latitude>
			<longitude>2.325134</longitude>
			<adresse>Place de la Madeleine 75008 Paris, France</adresse>
			<nom>AGUESSEAU</nom>
		</element>
		<element id="325" type="bar">
			<latitude>48.8778514</latitude>
			<longitude>2.3157284</longitude>
			<adresse>Rue de Lisbonne, Europe, 8e</adresse>
			<nom>La Caravane</nom>
		</element>
		<element id="326" type="cafe">
			<latitude>48.877635</latitude>
			<longitude>2.312777</longitude>
			<adresse>rue de Lisbonne</adresse>
			<nom>Café de la Mairie (du VIII)</nom>
		</element>
		<element id="327" type="cafe">
			<latitude>48.875322</latitude>
			<longitude>2.312329</longitude>
			<adresse>146, boulevard Haussmann</adresse>
			<nom>Le Relais Haussmann</nom>
		</element>
		<element id="328" type="cafe">
			<latitude>48.872202</latitude>
			<longitude>2.304624</longitude>
			<adresse>61 rue de Ponthieu</adresse>
			<nom>Les Arcades</nom>
		</element>
		<element id="329" type="cafe">
			<latitude>48.872677</latitude>
			<longitude>2.315276</longitude>
			<adresse>27 rue de Penthièvre</adresse>
			<nom>O'Breizh</nom>
		</element>
		<element id="330" type="cafe">
			<latitude>48.87226</latitude>
			<longitude>2.304441</longitude>
			<adresse>63 rue de Ponthieu</adresse>
			<nom>Le Fronton</nom>
		</element>
		<element id="331" type="cafe">
			<latitude>48.871002</latitude>
			<longitude>2.30879</longitude>
			<adresse>28 rue de Ponthieu</adresse>
			<nom>L'Angle</nom>
		</element>
		<element id="332" type="cafe">
			<latitude>48.871799</latitude>
			<longitude>2.315985</longitude>
			<adresse>9 rue de Miromesnil</adresse>
			<nom>Café beauveau</nom>
		</element>
	</arrondissement>
	<arrondissement num="75009">
		<element id="333" type="cinema">
			<latitude>48.871044</latitude>
			<longitude>2.33361</longitude>
			<adresse>2/4 BOULEVARD DES CAPUCINES</adresse>
			<nom>GAUMONT OPERA CAPUCINES 2</nom>
		</element>
		<element id="334" type="cinema">
			<latitude>48.87561</latitude>
			<longitude>2.32791</longitude>
			<adresse>101 RUE ST LAZARE</adresse>
			<nom>CAUMARTIN 4 (EX CINEVOG 4 )</nom>
		</element>
		<element id="335" type="cinema">
			<latitude>48.871363</latitude>
			<longitude>2.344886</longitude>
			<adresse>24 BOULEVARD POISSONNIERE</adresse>
			<nom>MAX LINDER</nom>
		</element>
		<element id="336" type="cinema">
			<latitude>48.871332</latitude>
			<longitude>2.335302</longitude>
			<adresse>32 BOULEVARDD DES ITALIENS</adresse>
			<nom>UGC OPERA 1</nom>
		</element>
		<element id="337" type="cinema">
			<latitude>48.871048</latitude>
			<longitude>2.334386</longitude>
			<adresse>38 BOULEVARD DES ITALIENS</adresse>
			<nom>GAUMONT OPERA FRANCAIS 8</nom>
		</element>
		<element id="338" type="cafe">
			<latitude>48.875232</latitude>
			<longitude>2.336036</longitude>
			<adresse>46 rue Victoire</adresse>
			<nom>Café Zen</nom>
		</element>
		<element id="339" type="cafe">
			<latitude>48.877599</latitude>
			<longitude>2.332111</longitude>
			<adresse>12 rue Blanche</adresse>
			<nom>Le Brigadier</nom>
		</element>
		<element id="340" type="cafe">
			<latitude>48.873175</latitude>
			<longitude>2.339193</longitude>
			<adresse>10 rue Rossini</adresse>
			<nom>La Brocante</nom>
		</element>
		<element id="341" type="cafe">
			<latitude>48.876577</latitude>
			<longitude>2.348414</longitude>
			<adresse>1 rue de Montholon</adresse>
			<nom>L'anjou</nom>
		</element>
		<element id="342" type="cafe">
			<latitude>48.875155</latitude>
			<longitude>2.335536</longitude>
			<adresse>51 Rue Victoire</adresse>
			<nom>Le chantereine</nom>
		</element>
		<element id="343" type="cafe">
			<latitude>48.875207</latitude>
			<longitude>2.332944</longitude>
			<adresse>73 rue de la Victoire</adresse>
			<nom>Le relais de la victoire</nom>
		</element>
		<element id="344" type="cafe">
			<latitude>48.872103</latitude>
			<longitude>2.346161</longitude>
			<adresse>14 rue Rougemont</adresse>
			<nom>Le Dellac</nom>
		</element>
		<element id="345" type="marche">
			<latitude>48.881874</latitude>
			<longitude>2.344889</longitude>
			<adresse>Place d'Anvers 75009 Paris, France</adresse>
			<nom>ANVERS</nom>
		</element>
		<element id="346" type="preservatifs">
			<latitude>48.87601</latitude>
			<longitude>2.342244</longitude>
			<adresse>26 rue Buffault</adresse>
			<nom>Gymnase Buffault</nom>
		</element>
		<element id="347" type="bibli">
			<longitude>2.332445</longitude>
			<latitude>48.8814478</latitude>
			<adresse>26, RUE CHAPTAL</adresse>
			<nom>bibliotheque chaptal</nom>
		</element>
		<element id="348" type="bibli">
			<longitude>2.3404298</longitude>
			<latitude>48.8734566</latitude>
			<adresse>11, RUE DROUOT</adresse>
			<nom>bibliotheque municipale drouot</nom>
		</element>
		<element id="349" type="preservatifs">
			<latitude>48.87601</latitude>
			<longitude>2.342244</longitude>
			<adresse>26 rue Buffault</adresse>
			<nom>Gymnase Buffault</nom>
		</element>
		<element id="350" type="cinema">
			<latitude>48.871044</latitude>
			<longitude>2.33361</longitude>
			<adresse>2/4 BOULEVARD DES CAPUCINES</adresse>
			<nom>GAUMONT OPERA CAPUCINES 2</nom>
		</element>
		<element id="351" type="cinema">
			<latitude>48.87561</latitude>
			<longitude>2.32791</longitude>
			<adresse>101 RUE ST LAZARE</adresse>
			<nom>CAUMARTIN 4 (EX CINEVOG 4 )</nom>
		</element>
		<element id="352" type="cinema">
			<latitude>48.871363</latitude>
			<longitude>2.344886</longitude>
			<adresse>24 BOULEVARD POISSONNIERE</adresse>
			<nom>MAX LINDER</nom>
		</element>
		<element id="353" type="cinema">
			<latitude>48.871332</latitude>
			<longitude>2.335302</longitude>
			<adresse>32 BOULEVARDD DES ITALIENS</adresse>
			<nom>UGC OPERA 1</nom>
		</element>
		<element id="354" type="cinema">
			<latitude>48.871048</latitude>
			<longitude>2.334386</longitude>
			<adresse>38 BOULEVARD DES ITALIENS</adresse>
			<nom>GAUMONT OPERA FRANCAIS 8</nom>
		</element>
		<element id="355" type="bibli">
			<longitude>2.332445</longitude>
			<latitude>48.8814478</latitude>
			<adresse>26, RUE CHAPTAL</adresse>
			<nom>bibliotheque chaptal</nom>
		</element>
		<element id="356" type="bibli">
			<longitude>2.3404298</longitude>
			<latitude>48.8734566</latitude>
			<adresse>11, RUE DROUOT</adresse>
			<nom>bibliotheque municipale drouot</nom>
		</element>
		<element id="357" type="marche">
			<latitude>48.881874</latitude>
			<longitude>2.344889</longitude>
			<adresse>Place d'Anvers 75009 Paris, France</adresse>
			<nom>ANVERS</nom>
		</element>
		<element id="358" type="bar">
			<latitude>48.870988</latitude>
			<longitude>2.3449749</longitude>
			<adresse>Boulevard Poissonnière, Sentier, 9e Arrondissement</adresse>
			<nom>James Hetfeeld's Pub</nom>
		</element>
		<element id="359" type="bar">
			<latitude>48.8713994</latitude>
			<longitude>2.3446987</longitude>
			<adresse>Boulevard Poissonnière, Sentier, 9e Arrondissement</adresse>
			<nom>The Wall</nom>
		</element>
		<element id="360" type="cafe">
			<latitude>48.875232</latitude>
			<longitude>2.336036</longitude>
			<adresse>46 rue Victoire</adresse>
			<nom>Café Zen</nom>
		</element>
		<element id="361" type="cafe">
			<latitude>48.877599</latitude>
			<longitude>2.332111</longitude>
			<adresse>12 rue Blanche</adresse>
			<nom>Le Brigadier</nom>
		</element>
		<element id="362" type="cafe">
			<latitude>48.873175</latitude>
			<longitude>2.339193</longitude>
			<adresse>10 rue Rossini</adresse>
			<nom>La Brocante</nom>
		</element>
		<element id="363" type="cafe">
			<latitude>48.876577</latitude>
			<longitude>2.348414</longitude>
			<adresse>1 rue de Montholon</adresse>
			<nom>L'anjou</nom>
		</element>
		<element id="364" type="cafe">
			<latitude>48.875155</latitude>
			<longitude>2.335536</longitude>
			<adresse>51 Rue Victoire</adresse>
			<nom>Le chantereine</nom>
		</element>
		<element id="365" type="cafe">
			<latitude>48.875207</latitude>
			<longitude>2.332944</longitude>
			<adresse>73 rue de la Victoire</adresse>
			<nom>Le relais de la victoire</nom>
		</element>
		<element id="366" type="cafe">
			<latitude>48.872103</latitude>
			<longitude>2.346161</longitude>
			<adresse>14 rue Rougemont</adresse>
			<nom>Le Dellac</nom>
		</element>
	</arrondissement>
	<arrondissement num="75010">
		<element id="367" type="cinema">
			<latitude>48.870455</latitude>
			<longitude>2.35466</longitude>
			<adresse>17 BOULEVARD DE STRASBOURG</adresse>
			<nom>L'ARCHIPEL 1</nom>
		</element>
		<element id="368" type="cinema">
			<latitude>48.871771</latitude>
			<longitude>2.355398</longitude>
			<adresse>39 BOULEVARD DE STRASBOURG</adresse>
			<nom>LE BRADY 1</nom>
		</element>
		<element id="369" type="cinema">
			<latitude>48.883487</latitude>
			<longitude>2.349853</longitude>
			<adresse>170 BOULEVARD DE MAGENTA</adresse>
			<nom>LE LOUXOR SALLE 1 YOUSSEF CHAHINE</nom>
		</element>
		<element id="370" type="cafe">
			<latitude>48.872722</latitude>
			<longitude>2.354594</longitude>
			<adresse>67 rue du Château d'eau</adresse>
			<nom>le chateau d'eau</nom>
		</element>
		<element id="371" type="cafe">
			<latitude>48.876737</latitude>
			<longitude>2.357601</longitude>
			<adresse>5, rue d'Alsace</adresse>
			<nom>Extérieur Quai</nom>
		</element>
		<element id="372" type="cafe">
			<latitude>48.880669</latitude>
			<longitude>2.349964</longitude>
			<adresse>136 rue du Faubourg poissonnière</adresse>
			<nom>La cantine de Zoé</nom>
		</element>
		<element id="373" type="cafe">
			<latitude>48.871576</latitude>
			<longitude>2.364499</longitude>
			<adresse>36 rue Beaurepaire</adresse>
			<nom>Chez Prune</nom>
		</element>
		<element id="374" type="cafe">
			<latitude>48.872746</latitude>
			<longitude>2.366392</longitude>
			<adresse>49 rue bichat</adresse>
			<nom>American Kitchen</nom>
		</element>
		<element id="375" type="cafe">
			<latitude>48.872402</latitude>
			<longitude>2.366532</longitude>
			<adresse>16 avenue Richerand</adresse>
			<nom>Café Clochette</nom>
		</element>
		<element id="376" type="cafe">
			<latitude>48.870598</latitude>
			<longitude>2.365413</longitude>
			<adresse>55bis quai de Valmy</adresse>
			<nom>Epicerie Musicale</nom>
		</element>
		<element id="377" type="cafe">
			<latitude>48.870598</latitude>
			<longitude>2.365413</longitude>
			<adresse>55 bis quai de valmy</adresse>
			<nom>La Marine</nom>
		</element>
		<element id="378" type="cafe">
			<latitude>48.873227</latitude>
			<longitude>2.360787</longitude>
			<adresse>44 rue Vinaigriers</adresse>
			<nom>Chez Fafa</nom>
		</element>
		<element id="379" type="cafe">
			<latitude>48.870294</latitude>
			<longitude>2.352821</longitude>
			<adresse>13 rue du Faubourg Saint Denis</adresse>
			<nom>Le sully</nom>
		</element>
		<element id="380" type="cafe">
			<latitude>48.872498</latitude>
			<longitude>2.355136</longitude>
			<adresse>61 rue du château d'eau</adresse>
			<nom>Brasserie le Morvan</nom>
		</element>
		<element id="381" type="marche">
			<latitude>48.900951</latitude>
			<longitude>2.39055</longitude>
			<adresse>85 bis, Bd magenta 75010 Paris, France</adresse>
			<nom>Saint Quentin</nom>
		</element>
		<element id="382" type="marche">
			<latitude>48.870998</latitude>
			<longitude>2.35856</longitude>
			<adresse>31/33, Rue du Château d'Eau 75010 Paris, France</adresse>
			<nom>Saint Martin</nom>
		</element>
		<element id="383" type="marche">
			<latitude>48.871651</latitude>
			<longitude>2.367655</longitude>
			<adresse>rue Alibert 75010 Paris, France</adresse>
			<nom>ALIBERT</nom>
		</element>
		<element id="384" type="preservatifs">
			<latitude>48.877434</latitude>
			<longitude>2.368388</longitude>
			<adresse>17 rue Boy-Zelenski</adresse>
			<nom>Centre sportif Grange aux belles</nom>
		</element>
		<element id="385" type="preservatifs">
			<latitude>48.87484</latitude>
			<longitude>2.363792</longitude>
			<adresse>116 Quai de Jemmapes</adresse>
			<nom>Centre d'animation Jemmapes</nom>
		</element>
		<element id="386" type="bibli">
			<longitude>2.3573783</longitude>
			<latitude>48.8717768</latitude>
			<adresse>72, RUE DU FAUBOURG SAINT-MARTIN</adresse>
			<nom>bibliotheque municipale chateau d'eau</nom>
		</element>
		<element id="387" type="crous">
			<longitude>2.361524</longitude>
			<latitude>48.876373</latitude>
			<adresse>10 avenue de Verdun 75010 Paris</adresse>
			<nom>Cafétéria Villemin</nom>
		</element>
		<element id="388" type="crous">
			<longitude>2.361524</longitude>
			<latitude>48.876373</latitude>
			<adresse>10 avenue de Verdun 75010 Paris</adresse>
			<nom>Cafétéria Villemin</nom>
		</element>
		<element id="389" type="preservatifs">
			<latitude>48.877434</latitude>
			<longitude>2.368388</longitude>
			<adresse>17 rue Boy-Zelenski</adresse>
			<nom>Centre sportif Grange aux belles</nom>
		</element>
		<element id="390" type="preservatifs">
			<latitude>48.87484</latitude>
			<longitude>2.363792</longitude>
			<adresse>116 Quai de Jemmapes</adresse>
			<nom>Centre d'animation Jemmapes</nom>
		</element>
		<element id="391" type="cinema">
			<latitude>48.870455</latitude>
			<longitude>2.35466</longitude>
			<adresse>17 BOULEVARD DE STRASBOURG</adresse>
			<nom>L'ARCHIPEL 1</nom>
		</element>
		<element id="392" type="cinema">
			<latitude>48.871771</latitude>
			<longitude>2.355398</longitude>
			<adresse>39 BOULEVARD DE STRASBOURG</adresse>
			<nom>LE BRADY 1</nom>
		</element>
		<element id="393" type="cinema">
			<latitude>48.883487</latitude>
			<longitude>2.349853</longitude>
			<adresse>170 BOULEVARD DE MAGENTA</adresse>
			<nom>LE LOUXOR SALLE 1 YOUSSEF CHAHINE</nom>
		</element>
		<element id="394" type="bibli">
			<longitude>2.3573783</longitude>
			<latitude>48.8717768</latitude>
			<adresse>72, RUE DU FAUBOURG SAINT-MARTIN</adresse>
			<nom>bibliotheque municipale chateau d'eau</nom>
		</element>
		<element id="395" type="marche">
			<latitude>48.900951</latitude>
			<longitude>2.39055</longitude>
			<adresse>85 bis, Bd magenta 75010 Paris, France</adresse>
			<nom>Saint Quentin</nom>
		</element>
		<element id="396" type="marche">
			<latitude>48.870998</latitude>
			<longitude>2.35856</longitude>
			<adresse>31/33, Rue du Château d'Eau 75010 Paris, France</adresse>
			<nom>Saint Martin</nom>
		</element>
		<element id="397" type="marche">
			<latitude>48.871651</latitude>
			<longitude>2.367655</longitude>
			<adresse>rue Alibert 75010 Paris, France</adresse>
			<nom>ALIBERT</nom>
		</element>
		<element id="398" type="bar">
			<latitude>48.8713202</latitude>
			<longitude>2.365856</longitude>
			<adresse>Quai de Jemmapes, Porte-St-Martin, 10e</adresse>
			<nom>Le chinois</nom>
		</element>
		<element id="399" type="bar">
			<latitude>48.8703084</latitude>
			<longitude>2.3528255</longitude>
			<adresse>Rue du Faubourg Saint-Denis, Porte-St-Denis, 10e</adresse>
			<nom>Le Dumas</nom>
		</element>
		<element id="400" type="bar">
			<latitude>48.8782984</latitude>
			<longitude>2.3583405</longitude>
			<adresse>1, Rue des Deux Gares, St-Vincent-de-Paul, 10e</adresse>
			<nom>Café Leffe</nom>
		</element>
		<element id="401" type="bar">
			<latitude>48.8727411</latitude>
			<longitude>2.3545133</longitude>
			<adresse>Rue du Château d'Eau, Porte-St-Denis, 10e</adresse>
			<nom>Le Rivolux</nom>
		</element>
		<element id="402" type="bar">
			<latitude>48.8711993</latitude>
			<longitude>2.3697018</longitude>
			<adresse>13, Rue Jacques Louvel-Tessier, Hôpital-St-Louis, 10e</adresse>
			<nom>Le Château d'Eau</nom>
		</element>
		<element id="403" type="bar">
			<latitude>48.8746926</latitude>
			<longitude>2.3541936</longitude>
			<adresse>12, Rue de Paradis, Porte-St-Denis, 10e</adresse>
			<nom>Le Triangle</nom>
		</element>
		<element id="404" type="bar">
			<latitude>48.8707201</latitude>
			<longitude>2.3498182</longitude>
			<adresse>Rue d'Hauteville, Porte-St-Denis, 10e</adresse>
			<nom>Wos Bar</nom>
		</element>
		<element id="405" type="bar">
			<latitude>48.8815009</latitude>
			<longitude>2.3685984</longitude>
			<adresse>200, Quai de Valmy, Hôpital-St-Louis, 10e</adresse>
			<nom>Lêche vin</nom>
		</element>
		<element id="406" type="cafe">
			<latitude>48.872722</latitude>
			<longitude>2.354594</longitude>
			<adresse>67 rue du Château d'eau</adresse>
			<nom>le chateau d'eau</nom>
		</element>
		<element id="407" type="cafe">
			<latitude>48.876737</latitude>
			<longitude>2.357601</longitude>
			<adresse>5, rue d'Alsace</adresse>
			<nom>Extérieur Quai</nom>
		</element>
		<element id="408" type="cafe">
			<latitude>48.880669</latitude>
			<longitude>2.349964</longitude>
			<adresse>136 rue du Faubourg poissonnière</adresse>
			<nom>La cantine de Zoé</nom>
		</element>
		<element id="409" type="cafe">
			<latitude>48.871576</latitude>
			<longitude>2.364499</longitude>
			<adresse>36 rue Beaurepaire</adresse>
			<nom>Chez Prune</nom>
		</element>
		<element id="410" type="cafe">
			<latitude>48.872746</latitude>
			<longitude>2.366392</longitude>
			<adresse>49 rue bichat</adresse>
			<nom>American Kitchen</nom>
		</element>
		<element id="411" type="cafe">
			<latitude>48.872402</latitude>
			<longitude>2.366532</longitude>
			<adresse>16 avenue Richerand</adresse>
			<nom>Café Clochette</nom>
		</element>
		<element id="412" type="cafe">
			<latitude>48.870598</latitude>
			<longitude>2.365413</longitude>
			<adresse>55bis quai de Valmy</adresse>
			<nom>Epicerie Musicale</nom>
		</element>
		<element id="413" type="cafe">
			<latitude>48.870598</latitude>
			<longitude>2.365413</longitude>
			<adresse>55 bis quai de valmy</adresse>
			<nom>La Marine</nom>
		</element>
		<element id="414" type="cafe">
			<latitude>48.873227</latitude>
			<longitude>2.360787</longitude>
			<adresse>44 rue Vinaigriers</adresse>
			<nom>Chez Fafa</nom>
		</element>
		<element id="415" type="cafe">
			<latitude>48.870294</latitude>
			<longitude>2.352821</longitude>
			<adresse>13 rue du Faubourg Saint Denis</adresse>
			<nom>Le sully</nom>
		</element>
		<element id="416" type="cafe">
			<latitude>48.872498</latitude>
			<longitude>2.355136</longitude>
			<adresse>61 rue du château d'eau</adresse>
			<nom>Brasserie le Morvan</nom>
		</element>
	</arrondissement>
	<arrondissement num="75011">
		<element id="417" type="cinema">
			<latitude>48.854674</latitude>
			<longitude>2.369381</longitude>
			<adresse>3 BOULEVARD RICHARD LENOIR 4/6 BOULEVARD BEAUMARCHAIS</adresse>
			<nom>MK2 BASTILLE 1</nom>
		</element>
		<element id="418" type="cinema">
			<latitude>48.853157</latitude>
			<longitude>2.370719</longitude>
			<adresse>5 RUE DU FAUBOURG ST ANTOINE</adresse>
			<nom>LA BASTILLE 1</nom>
		</element>
		<element id="419" type="cinema">
			<latitude>48.85399</latitude>
			<longitude>2.369949</longitude>
			<adresse>4 BOULEVARD RICHARD LENOIR</adresse>
			<nom>MAJESTIC BASTILLE 1</nom>
		</element>
		<element id="420" type="cafe">
			<latitude>48.853253</latitude>
			<longitude>2.383415</longitude>
			<adresse>14 rue Jean Macé</adresse>
			<nom>Le Pure café</nom>
		</element>
		<element id="421" type="cafe">
			<latitude>48.857312</latitude>
			<longitude>2.379055</longitude>
			<adresse>93, rue de la Roquette</adresse>
			<nom>L'horizon</nom>
		</element>
		<element id="422" type="cafe">
			<latitude>48.870247</latitude>
			<longitude>2.376306</longitude>
			<adresse>35 rue de l'orillon</adresse>
			<nom>l'orillon bar</nom>
		</element>
		<element id="423" type="cafe">
			<latitude>48.862575</latitude>
			<longitude>2.367427</longitude>
			<adresse>104 rue amelot</adresse>
			<nom>Le Centenaire</nom>
		</element>
		<element id="424" type="cafe">
			<latitude>48.864269</latitude>
			<longitude>2.36858</longitude>
			<adresse>18 rue de Crussol</adresse>
			<nom>Panem</nom>
		</element>
		<element id="425" type="cafe">
			<latitude>48.854584</latitude>
			<longitude>2.385193</longitude>
			<adresse>184 bd Voltaire</adresse>
			<nom>L'ingénu</nom>
		</element>
		<element id="426" type="cafe">
			<latitude>48.853381</latitude>
			<longitude>2.376706</longitude>
			<adresse>41 rue de Charonne</adresse>
			<nom>Pause Café</nom>
		</element>
		<element id="427" type="cafe">
			<latitude>48.848873</latitude>
			<longitude>2.392859</longitude>
			<adresse>307 fg saint Antoine</adresse>
			<nom>Extra old café</nom>
		</element>
		<element id="428" type="cafe">
			<latitude>48.856584</latitude>
			<longitude>2.368574</longitude>
			<adresse>40 Boulevard Beaumarchais</adresse>
			<nom>La cantoche de Paname</nom>
		</element>
		<element id="429" type="cafe">
			<latitude>48.865707</latitude>
			<longitude>2.374382</longitude>
			<adresse>90 avenue Parmentier</adresse>
			<nom>Le Plein soleil</nom>
		</element>
		<element id="430" type="cafe">
			<latitude>48.868741</latitude>
			<longitude>2.379969</longitude>
			<adresse>99 rue Jean-Pierre Timbaud</adresse>
			<nom>L'Assassin</nom>
		</element>
		<element id="431" type="cafe">
			<latitude>48.850836</latitude>
			<longitude>2.384069</longitude>
			<adresse>3 rue Faidherbe</adresse>
			<nom>En attendant l'or</nom>
		</element>
		<element id="432" type="cafe">
			<latitude>48.868584</latitude>
			<longitude>2.373007</longitude>
			<adresse>Rue de la Fontaine au Roi</adresse>
			<nom>La Caravane</nom>
		</element>
		<element id="433" type="cafe">
			<latitude>48.859115</latitude>
			<longitude>2.368871</longitude>
			<adresse>60 rue saint-sabin</adresse>
			<nom>Le Poulailler</nom>
		</element>
		<element id="434" type="marche">
			<latitude>48.862064</latitude>
			<longitude>2.387661</longitude>
			<adresse>Bd de Ménilmontant 75011 Paris, France</adresse>
			<nom>PERE LACHAISE</nom>
		</element>
		<element id="435" type="marche">
			<latitude>48.860321</latitude>
			<longitude>2.372673</longitude>
			<adresse>Bd Richard Lenoir 75011 Paris, France</adresse>
			<nom>POPINCOURT</nom>
		</element>
		<element id="436" type="marche">
			<latitude>48.854843</latitude>
			<longitude>2.395497</longitude>
			<adresse>Bd de Charonne 75011 Paris, France</adresse>
			<nom>CHARONNE</nom>
		</element>
		<element id="437" type="marche">
			<latitude>48.869495</latitude>
			<longitude>2.379707</longitude>
			<adresse>Bd de Belleville 75011 Paris, France</adresse>
			<nom>BELLEVILLE</nom>
		</element>
		<element id="438" type="marche">
			<latitude>48.860321</latitude>
			<longitude>2.372673</longitude>
			<adresse>boulevard Richard Lenoir 75011 Paris, France</adresse>
			<nom>BASTILLE</nom>
		</element>
		<element id="439" type="marche">
			<latitude>48.860321</latitude>
			<longitude>2.372673</longitude>
			<adresse>Bd Richard Lenoir 75011 Paris, France</adresse>
			<nom>BASTILLE</nom>
		</element>
		<element id="440" type="preservatifs">
			<latitude>48.870547</latitude>
			<longitude>2.377314</longitude>
			<adresse>43 rue de l'Orillon</adresse>
			<nom>Antenne jeunes Orillon</nom>
		</element>
		<element id="441" type="preservatifs">
			<latitude>48.855874</latitude>
			<longitude>2.38245</longitude>
			<adresse>2 rue Jappy</adresse>
			<nom>Gymnase Japy</nom>
		</element>
		<element id="442" type="preservatifs">
			<latitude>48.870547</latitude>
			<longitude>2.377314</longitude>
			<adresse>43 rue de l'Orillon</adresse>
			<nom>Antenne jeunes Orillon</nom>
		</element>
		<element id="443" type="preservatifs">
			<latitude>48.855874</latitude>
			<longitude>2.38245</longitude>
			<adresse>2 rue Jappy</adresse>
			<nom>Gymnase Japy</nom>
		</element>
		<element id="444" type="cinema">
			<latitude>48.854674</latitude>
			<longitude>2.369381</longitude>
			<adresse>3 BOULEVARD RICHARD LENOIR 4/6 BOULEVARD BEAUMARCHAIS</adresse>
			<nom>MK2 BASTILLE 1</nom>
		</element>
		<element id="445" type="cinema">
			<latitude>48.853157</latitude>
			<longitude>2.370719</longitude>
			<adresse>5 RUE DU FAUBOURG ST ANTOINE</adresse>
			<nom>LA BASTILLE 1</nom>
		</element>
		<element id="446" type="cinema">
			<latitude>48.85399</latitude>
			<longitude>2.369949</longitude>
			<adresse>4 BOULEVARD RICHARD LENOIR</adresse>
			<nom>MAJESTIC BASTILLE 1</nom>
		</element>
		<element id="447" type="marche">
			<latitude>48.862064</latitude>
			<longitude>2.387661</longitude>
			<adresse>Bd de Ménilmontant 75011 Paris, France</adresse>
			<nom>PERE LACHAISE</nom>
		</element>
		<element id="448" type="marche">
			<latitude>48.860321</latitude>
			<longitude>2.372673</longitude>
			<adresse>Bd Richard Lenoir 75011 Paris, France</adresse>
			<nom>POPINCOURT</nom>
		</element>
		<element id="449" type="marche">
			<latitude>48.854843</latitude>
			<longitude>2.395497</longitude>
			<adresse>Bd de Charonne 75011 Paris, France</adresse>
			<nom>CHARONNE</nom>
		</element>
		<element id="450" type="marche">
			<latitude>48.869495</latitude>
			<longitude>2.379707</longitude>
			<adresse>Bd de Belleville 75011 Paris, France</adresse>
			<nom>BELLEVILLE</nom>
		</element>
		<element id="451" type="marche">
			<latitude>48.860321</latitude>
			<longitude>2.372673</longitude>
			<adresse>boulevard Richard Lenoir 75011 Paris, France</adresse>
			<nom>BASTILLE</nom>
		</element>
		<element id="452" type="marche">
			<latitude>48.860321</latitude>
			<longitude>2.372673</longitude>
			<adresse>Bd Richard Lenoir 75011 Paris, France</adresse>
			<nom>BASTILLE</nom>
		</element>
		<element id="453" type="bar">
			<latitude>48.8648511</latitude>
			<longitude>2.3817815</longitude>
			<adresse>6, Avenue Jean Aicard, St-Ambroise, 11e</adresse>
			<nom>Le Dernier Bar Avant la Fin du Monde</nom>
		</element>
		<element id="454" type="bar">
			<latitude>48.8614116</latitude>
			<longitude>2.3675537</longitude>
			<adresse>105, Rue Amelot, St-Ambroise, 11e</adresse>
			<nom>L'antidote</nom>
		</element>
		<element id="455" type="bar">
			<latitude>48.8527486</latitude>
			<longitude>2.3889981</longitude>
			<adresse>Rue Alexandre Dumas, Ste-Marguerite, 11e</adresse>
			<nom>Thirsty Mad Cat</nom>
		</element>
		<element id="456" type="bar">
			<latitude>48.8553007</latitude>
			<longitude>2.3755708</longitude>
			<adresse>34, Rue Keller, Roquette, 11e</adresse>
			<nom>L'Acapulco</nom>
		</element>
		<element id="457" type="bar">
			<latitude>48.8666898</latitude>
			<longitude>2.369421</longitude>
			<adresse>Boulevard Richard Lenoir, Folie-Méricourt, 11e</adresse>
			<nom>Lush</nom>
		</element>
		<element id="458" type="bar">
			<latitude>48.8584243</latitude>
			<longitude>2.3685727</longitude>
			<adresse>Rue Amelot, St-Ambroise, 11e</adresse>
			<nom>Epsilon</nom>
		</element>
		<element id="459" type="bar">
			<latitude>48.8687538</latitude>
			<longitude>2.379949</longitude>
			<adresse>Rue Jean-Pierre Timbaud, Folie-Méricourt, 11e</adresse>
			<nom>Au Bar Le Surène</nom>
		</element>
		<element id="460" type="bar">
			<latitude>48.8683391</latitude>
			<longitude>2.3714311</longitude>
			<adresse>Rue de la Fontaine au Roi, Folie-Méricourt, 11e</adresse>
			<nom>Patrick's Le Ballon Vert</nom>
		</element>
		<element id="461" type="bar">
			<latitude>48.8503838</latitude>
			<longitude>2.3895178</longitude>
			<adresse>Rue de Montreuil, Ste-Marguerite, 11e</adresse>
			<nom>Le Petit Clement</nom>
		</element>
		<element id="462" type="bar">
			<latitude>48.854971</latitude>
			<longitude>2.370733</longitude>
			<adresse>13, Rue Daval, Roquette, 11e</adresse>
			<nom>Le bouillon belge</nom>
		</element>
		<element id="463" type="cafe">
			<latitude>48.853253</latitude>
			<longitude>2.383415</longitude>
			<adresse>14 rue Jean Macé</adresse>
			<nom>Le Pure café</nom>
		</element>
		<element id="464" type="cafe">
			<latitude>48.857312</latitude>
			<longitude>2.379055</longitude>
			<adresse>93, rue de la Roquette</adresse>
			<nom>L'horizon</nom>
		</element>
		<element id="465" type="cafe">
			<latitude>48.870247</latitude>
			<longitude>2.376306</longitude>
			<adresse>35 rue de l'orillon</adresse>
			<nom>l'orillon bar</nom>
		</element>
		<element id="466" type="cafe">
			<latitude>48.862575</latitude>
			<longitude>2.367427</longitude>
			<adresse>104 rue amelot</adresse>
			<nom>Le Centenaire</nom>
		</element>
		<element id="467" type="cafe">
			<latitude>48.864269</latitude>
			<longitude>2.36858</longitude>
			<adresse>18 rue de Crussol</adresse>
			<nom>Panem</nom>
		</element>
		<element id="468" type="cafe">
			<latitude>48.854584</latitude>
			<longitude>2.385193</longitude>
			<adresse>184 bd Voltaire</adresse>
			<nom>L'ingénu</nom>
		</element>
		<element id="469" type="cafe">
			<latitude>48.853381</latitude>
			<longitude>2.376706</longitude>
			<adresse>41 rue de Charonne</adresse>
			<nom>Pause Café</nom>
		</element>
		<element id="470" type="cafe">
			<latitude>48.848873</latitude>
			<longitude>2.392859</longitude>
			<adresse>307 fg saint Antoine</adresse>
			<nom>Extra old café</nom>
		</element>
		<element id="471" type="cafe">
			<latitude>48.856584</latitude>
			<longitude>2.368574</longitude>
			<adresse>40 Boulevard Beaumarchais</adresse>
			<nom>La cantoche de Paname</nom>
		</element>
		<element id="472" type="cafe">
			<latitude>48.865707</latitude>
			<longitude>2.374382</longitude>
			<adresse>90 avenue Parmentier</adresse>
			<nom>Le Plein soleil</nom>
		</element>
		<element id="473" type="cafe">
			<latitude>48.868741</latitude>
			<longitude>2.379969</longitude>
			<adresse>99 rue Jean-Pierre Timbaud</adresse>
			<nom>L'Assassin</nom>
		</element>
		<element id="474" type="cafe">
			<latitude>48.850836</latitude>
			<longitude>2.384069</longitude>
			<adresse>3 rue Faidherbe</adresse>
			<nom>En attendant l'or</nom>
		</element>
		<element id="475" type="cafe">
			<latitude>48.868584</latitude>
			<longitude>2.373007</longitude>
			<adresse>Rue de la Fontaine au Roi</adresse>
			<nom>La Caravane</nom>
		</element>
		<element id="476" type="cafe">
			<latitude>48.859115</latitude>
			<longitude>2.368871</longitude>
			<adresse>60 rue saint-sabin</adresse>
			<nom>Le Poulailler</nom>
		</element>
	</arrondissement>
	<arrondissement num="75012">
		<element id="477" type="cinema">
			<latitude>48.848213</latitude>
			<longitude>2.39311</longitude>
			<adresse>133 BOULEVARD DIDEROT</adresse>
			<nom>MK2 NATION 1</nom>
		</element>
		<element id="478" type="cinema">
			<latitude>48.847502</latitude>
			<longitude>2.371855</longitude>
			<adresse>12 RUE DE LYON</adresse>
			<nom>UGC LYON BASTILLE 3</nom>
		</element>
		<element id="479" type="cinema">
			<latitude>48.833007</latitude>
			<longitude>2.38666</longitude>
			<adresse>2 COUR SAINT-EMILION</adresse>
			<nom>UGC CINE CITE BERCY 10</nom>
		</element>
		<element id="480" type="cafe">
			<latitude>48.835878</latitude>
			<longitude>2.395723</longitude>
			<adresse>34 bis rue de Wattignies</adresse>
			<nom>Au pays de Vannes</nom>
		</element>
		<element id="481" type="cafe">
			<latitude>48.850055</latitude>
			<longitude>2.383908</longitude>
			<adresse>196 rue du faubourg saint-antoine</adresse>
			<nom>La Liberté</nom>
		</element>
		<element id="482" type="cafe">
			<latitude>48.84591</latitude>
			<longitude>2.375543</longitude>
			<adresse>28 bis boulevard Diderot</adresse>
			<nom>Le Killy Jen</nom>
		</element>
		<element id="483" type="cafe">
			<latitude>48.845337</latitude>
			<longitude>2.379024</longitude>
			<adresse>54, avenue Daumesnil</adresse>
			<nom>L'empreinte</nom>
		</element>
		<element id="484" type="cafe">
			<latitude>48.845652</latitude>
			<longitude>2.371817</longitude>
			<adresse>21 ter boulevard Diderot</adresse>
			<nom>Aux cadrans</nom>
		</element>
		<element id="485" type="cafe">
			<latitude>48.849861</latitude>
			<longitude>2.385342</longitude>
			<adresse>202 rue du faubourg st antoine</adresse>
			<nom>Café Pierre</nom>
		</element>
		<element id="486" type="cafe">
			<latitude>48.850092</latitude>
			<longitude>2.37463</longitude>
			<adresse>75, avenue Ledru-Rollin</adresse>
			<nom>Assaporare Dix sur Dix</nom>
		</element>
		<element id="487" type="cafe">
			<latitude>48.838769</latitude>
			<longitude>2.39609</longitude>
			<adresse>95 rue claude decaen</adresse>
			<nom>zic zinc</nom>
		</element>
		<element id="488" type="cafe">
			<latitude>48.850696</latitude>
			<longitude>2.378417</longitude>
			<adresse>126, rue du Faubourg Saint Antoine</adresse>
			<nom>Le Chat bossu</nom>
		</element>
		<element id="489" type="cafe">
			<latitude>48.842146</latitude>
			<longitude>2.375986</longitude>
			<adresse>157 rue Bercy 75012 Paris</adresse>
			<nom>L'entrepôt</nom>
		</element>
		<element id="490" type="cafe">
			<latitude>48.845898</latitude>
			<longitude>2.372766</longitude>
			<adresse>21 Bis Boulevard Diderot</adresse>
			<nom>L'européen</nom>
		</element>
		<element id="491" type="cafe">
			<latitude>48.832844</latitude>
			<longitude>2.386792</longitude>
			<adresse>33 Cour Saint Emilion</adresse>
			<nom>Chai 33</nom>
		</element>
		<element id="492" type="cafe">
			<latitude>48.85192</latitude>
			<longitude>2.373229</longitude>
			<adresse>58 rue du Fbg Saint-Antoine</adresse>
			<nom>Bistrot Saint-Antoine</nom>
		</element>
		<element id="493" type="marche">
			<latitude>48.83395</latitude>
			<longitude>2.40374</longitude>
			<adresse>91 Bd Poniatowski 75012 Paris, France</adresse>
			<nom>PORTE DOREE</nom>
		</element>
		<element id="494" type="marche">
			<latitude>48.84927</latitude>
			<longitude>2.377525</longitude>
			<adresse>Place d'Aligre 75012 Paris, France</adresse>
			<nom>BEAUVAU</nom>
		</element>
		<element id="495" type="marche">
			<latitude>48.844673</latitude>
			<longitude>2.389714</longitude>
			<adresse>Rue de Reuilly 75012 Paris, France</adresse>
			<nom>DAUMESNIL</nom>
		</element>
		<element id="496" type="marche">
			<latitude>48.846168</latitude>
			<longitude>2.38793</longitude>
			<adresse>36/38 rue de Neuilly 75012 Paris, France</adresse>
			<nom>SAINT ELOI</nom>
		</element>
		<element id="497" type="marche">
			<latitude>48.839699</latitude>
			<longitude>2.40026</longitude>
			<adresse>Bd Picpus 75012 Paris, France</adresse>
			<nom>COURS DE VINCENNES</nom>
		</element>
		<element id="498" type="marche">
			<latitude>48.836254</latitude>
			<longitude>2.387412</longitude>
			<adresse>Place Lachambeaudie 75012 Paris, France</adresse>
			<nom>BERCY</nom>
		</element>
		<element id="499" type="marche">
			<latitude>48.848144</latitude>
			<longitude>2.371697</longitude>
			<adresse>Av. Ledru Rollin 75012 Paris, France</adresse>
			<nom>LEDRU ROLLIN</nom>
		</element>
		<element id="500" type="marche">
			<latitude>48.84927</latitude>
			<longitude>2.377525</longitude>
			<adresse>Place d'Aligre 75012 Paris, France</adresse>
			<nom>Beauvau</nom>
		</element>
		<element id="501" type="preservatifs">
			<latitude>48.832161</latitude>
			<longitude>2.399323</longitude>
			<adresse>68 Bd Poniatowsky</adresse>
			<nom>Centre sportif Léo Lagrange</nom>
		</element>
		<element id="502" type="preservatifs">
			<latitude>48.840117</latitude>
			<longitude>2.412036</longitude>
			<adresse>15 rue de la Nouvelle Calédonie</adresse>
			<nom>Centre spotif Paul Valéry</nom>
		</element>
		<element id="503" type="bibli">
			<longitude>2.3775478</longitude>
			<latitude>48.8459507</latitude>
			<adresse>42, AVENUE DAUMESNIL</adresse>
			<nom>bibliotheque municipale diderot</nom>
		</element>
		<element id="504" type="crous">
			<longitude>2.379677</longitude>
			<latitude>48.846827</latitude>
			<adresse>45 boulevard Diderot 75012 Paris</adresse>
			<nom>RU Citeaux</nom>
		</element>
		<element id="505" type="crous">
			<longitude>2.379677</longitude>
			<latitude>48.846827</latitude>
			<adresse>45 boulevard Diderot 75012 Paris</adresse>
			<nom>RU Citeaux</nom>
		</element>
		<element id="506" type="preservatifs">
			<latitude>48.832161</latitude>
			<longitude>2.399323</longitude>
			<adresse>68 Bd Poniatowsky</adresse>
			<nom>Centre sportif Léo Lagrange</nom>
		</element>
		<element id="507" type="preservatifs">
			<latitude>48.840117</latitude>
			<longitude>2.412036</longitude>
			<adresse>15 rue de la Nouvelle Calédonie</adresse>
			<nom>Centre spotif Paul Valéry</nom>
		</element>
		<element id="508" type="cinema">
			<latitude>48.848213</latitude>
			<longitude>2.39311</longitude>
			<adresse>133 BOULEVARD DIDEROT</adresse>
			<nom>MK2 NATION 1</nom>
		</element>
		<element id="509" type="cinema">
			<latitude>48.847502</latitude>
			<longitude>2.371855</longitude>
			<adresse>12 RUE DE LYON</adresse>
			<nom>UGC LYON BASTILLE 3</nom>
		</element>
		<element id="510" type="cinema">
			<latitude>48.833007</latitude>
			<longitude>2.38666</longitude>
			<adresse>2 COUR SAINT-EMILION</adresse>
