<?xml version="1.0" encoding="UTF-8" ?>
<!DOCTYPE root SYSTEM "../grammaires/crous_restauration_france_entiere.dtd">
<root>
<resto id="r419" lat="43.5188791" lon="5.4498591" title="Les Gazelles" type="resto" zone="Aix"><contact>&lt;h2&gt;Les Gazelles&lt;/h2&gt;&lt;p&gt;31 avenue Jules Ferry 13100 Aix-en-Provence&lt;/p&gt;</contact></resto><resto id="r628" lat="43.5302287" lon="5.454456" title="Les Arts et M&#233;tiers" type="resto" zone="Aix"><contact>&lt;h2&gt;Les Arts et M&#233;tiers&lt;/h2&gt;&lt;p&gt;Cours des Arts et M&#233;tiers - 13621 Aix-en-Provence cedex 1&lt;br/&gt;&lt;b&gt;T&amp;#233;l&amp;#233;phone&lt;/b&gt; : 04 42 38 03 68&lt;/p&gt;</contact></resto><resto id="r629" lat="43.5132209" lon="5.4528503" title="Les Fenouill&#232;res" type="resto" zone="Aix"><contact>&lt;h2&gt;Les Fenouill&#232;res&lt;/h2&gt;&lt;p&gt;Avenue Gaston Berger 13621 Aix-en-Provence cedex 1&lt;br/&gt;&lt;b&gt;T&amp;#233;l&amp;#233;phone&lt;/b&gt; :  04 42 93 58 70&lt;/p&gt;</contact></resto><resto id="r630" lat="43.586142" lon="5.422629" title="IAE" type="resto" zone="Aix"><contact>&lt;h2&gt;IAE&lt;/h2&gt;&lt;p&gt;Clos Guiot - Puyricard - CS 30063 - 13089 Aix-en- Provence cedex 2&lt;br/&gt;&lt;b&gt;T&amp;#233;l&amp;#233;phone&lt;/b&gt; : 04 42 28 08 69&lt;/p&gt;</contact></resto><resto id="r631" lat="43.5191929" lon="5.4468557" title="Caf&#233;t&#233;ria de Droit" type="resto" zone="Aix"><contact>&lt;h2&gt;Caf&#233;t&#233;ria de Droit&lt;/h2&gt;&lt;p&gt;3 avenue Robert Schumann - 13621 Aix-en-Provence cedex 1&lt;br/&gt;&lt;b&gt;T&amp;#233;l&amp;#233;phone&lt;/b&gt; : 04 42 39 26 57&lt;/p&gt;</contact></resto><resto id="r632" lat="43.586142" lon="5.422629" title="Caf&#233;t&#233;ria IAE" type="resto" zone="Aix"><contact>&lt;h2&gt;Caf&#233;t&#233;ria IAE&lt;/h2&gt;&lt;p&gt;Clos Guiot - Puyricard - CS 30063 13089 Aix-en-Provence cedex 2&lt;br/&gt;&lt;b&gt;T&amp;#233;l&amp;#233;phone&lt;/b&gt; : 04 42 28 08 69&lt;/p&gt;</contact></resto><resto id="r633" lat="43.533717" lon="5.451985" title="Caf&#233;t&#233;ria de l'IUFM" type="resto" zone="Aix"><contact>&lt;h2&gt;Caf&#233;t&#233;ria de l'IUFM&lt;/h2&gt;&lt;p&gt;2 avenue Jules Isaac - 13621 Aix-en-Provence cedex 1&lt;br/&gt;&lt;b&gt;T&amp;#233;l&amp;#233;phone&lt;/b&gt; :  04 42 96 48 62&lt;/p&gt;</contact></resto><resto id="r634" lat="43.5173577" lon="5.4379284" title="Caf&#233;t&#233;ria Montperrin" type="resto" zone="Aix"><contact>&lt;h2&gt;Caf&#233;t&#233;ria Montperrin&lt;/h2&gt;&lt;p&gt;26 rue du Pigonnet - 13090 Aix-en-Provence&lt;br/&gt;&lt;b&gt;T&amp;#233;l&amp;#233;phone&lt;/b&gt; :  04 42 27 42 33&lt;/p&gt;</contact></resto><resto id="r635" lat="43.5132209" lon="5.4528503" title="Le Croustillant" type="resto" zone="Aix"><contact>&lt;h2&gt;Le Croustillant&lt;/h2&gt;&lt;p&gt;avenue Gaston Berger - 13621 Aix-en-Provence cedex 1&lt;br/&gt;&lt;b&gt;T&amp;#233;l&amp;#233;phone&lt;/b&gt; : 04 42 93 58 70&lt;/p&gt;</contact></resto><resto id="r636" lat="43.5311795" lon="5.4326975" title="Caf&#233;t&#233;ria Le Galice" type="resto" zone="Aix"><contact>&lt;h2&gt;Caf&#233;t&#233;ria Le Galice&lt;/h2&gt;&lt;p&gt;rue Jean Dalmas - 13100 Aix-en-Provence&lt;/p&gt;</contact></resto><resto id="r637" lat="43.5191929" lon="5.4468557" title="Caf&#233;t&#233;ria des Lettres" type="resto" zone="Aix"><contact>&lt;h2&gt;Caf&#233;t&#233;ria des Lettres&lt;/h2&gt;&lt;p&gt;29 avenue Robert Schumann 13621 Aix-en-Provence cedex 1&lt;br/&gt;&lt;b&gt;T&amp;#233;l&amp;#233;phone&lt;/b&gt; :  04 42 20 45 86&lt;/p&gt;</contact></resto><resto id="r638" lat="43.519007" lon="5.447949" title="La Crouzz&#233;ria" type="resto" zone="Aix"><contact>&lt;h2&gt;La Crouzz&#233;ria&lt;/h2&gt;&lt;p&gt;31 avenue Jules Ferry - 13621 Aix-en-Provence cedex 1&lt;br/&gt;&lt;b&gt;T&amp;#233;l&amp;#233;phone&lt;/b&gt; :  04 42 16 22 73&lt;/p&gt;</contact></resto><resto id="r639" lat="43.2868659" lon="5.3997356" title="Galinat" type="resto" zone="Marseille"><contact>&lt;h2&gt;Galinat&lt;/h2&gt;&lt;p&gt;38 boulevard Jean Moulin - 13005 Marseille&lt;br/&gt;&lt;b&gt;T&amp;#233;l&amp;#233;phone&lt;/b&gt; :  04 91 78 52 58&lt;/p&gt;</contact></resto><resto id="r640" lat="43.3056198" lon="5.3785957" title="Gaston Berger" type="resto" zone="Marseille"><contact>&lt;h2&gt;Gaston Berger&lt;/h2&gt;&lt;p&gt;43 rue du 141e?me RIA - 13003 Marseille&lt;br/&gt;&lt;b&gt;T&amp;#233;l&amp;#233;phone&lt;/b&gt; :  04 91 62 83 71 &lt;/p&gt;</contact></resto><resto id="r641" lat="43.3543089" lon="5.4552945" title="IMT - Ch&#226;teau Gombert" type="resto" zone="Marseille"><contact>&lt;h2&gt;IMT - Ch&#226;teau Gombert&lt;/h2&gt;&lt;p&gt;Chemin de la Grave - 13013 Marseille&lt;br/&gt;&lt;b&gt;T&amp;#233;l&amp;#233;phone&lt;/b&gt; : 04 91 05 46 18&lt;/p&gt;</contact></resto><resto id="r642" lat="43.238096" lon="5.43562" title="Luminy" type="resto" zone="Marseille"><contact>&lt;h2&gt;Luminy&lt;/h2&gt;&lt;p&gt;171 avenue de Luminy - 13009 Marseille&lt;br/&gt;&lt;b&gt;T&amp;#233;l&amp;#233;phone&lt;/b&gt; : 04 91 41 19 84&lt;/p&gt;</contact></resto><resto id="r643" lat="43.3352253" lon="5.408098" title="Saint-J&#233;r&#244;me" type="resto" zone="Marseille"><contact>&lt;h2&gt;Saint-J&#233;r&#244;me&lt;/h2&gt;&lt;p&gt;Avenue Henri Poincarre? - 13397 Marseille cedex 4&lt;br/&gt;&lt;b&gt;T&amp;#233;l&amp;#233;phone&lt;/b&gt; : 04 91 10 11 02&lt;/p&gt;</contact></resto><resto id="r644" lat="43.2975953" lon="5.3835992" title="Canebi&#232;re" type="resto" zone="Marseille"><contact>&lt;h2&gt;Canebi&#232;re&lt;/h2&gt;&lt;p&gt;9-11 rue S&#233;nac - 13001 Marseille&lt;/p&gt;</contact></resto><resto id="r645" lat="43.2980032" lon="5.3828208" title="Caf&#233;t&#233;ria Canebi&#232;re" type="resto" zone="Marseille"><contact>&lt;h2&gt;Caf&#233;t&#233;ria Canebi&#232;re&lt;/h2&gt;&lt;p&gt;Fac de droit - La Canebie?re - 13001 Marseille&lt;br/&gt;&lt;b&gt;T&amp;#233;l&amp;#233;phone&lt;/b&gt; : 04 91 02 58 17&lt;/p&gt;</contact></resto><resto id="r646" lat="43.3414453" lon="5.4086789" title="IUT" type="resto" zone="Marseille"><contact>&lt;h2&gt;IUT&lt;/h2&gt;&lt;p&gt;Chemin des Ge?raniums - 13014 Marseille&lt;br/&gt;&lt;b&gt;T&amp;#233;l&amp;#233;phone&lt;/b&gt; : 04 91 10 11 02&lt;/p&gt;</contact></resto><resto id="r647" lat="43.3425998" lon="5.4367564" title="Caf&#233;t&#233;ria IMT" type="resto" zone="Marseille"><contact>&lt;h2&gt;Caf&#233;t&#233;ria IMT&lt;/h2&gt;&lt;p&gt;38 rue Fr&#233;d&#233;ric Joliot Curie - 13013 Marseille&lt;br/&gt;&lt;b&gt;T&amp;#233;l&amp;#233;phone&lt;/b&gt; : 04 91 05 46 18&lt;/p&gt;</contact></resto><resto id="r648" lat="43.238096" lon="5.43562" title="Caf&#233;t&#233;ria Luminy" type="resto" zone="Marseille"><contact>&lt;h2&gt;Caf&#233;t&#233;ria Luminy&lt;/h2&gt;&lt;p&gt;171 avenue de Luminy - 13009 Marseille &lt;br/&gt;&lt;b&gt;T&amp;#233;l&amp;#233;phone&lt;/b&gt; : 04 91 41 19 84&lt;/p&gt;</contact></resto><resto id="r649" lat="43.2881033" lon="5.4033631" title="Caf&#233;t&#233;ria de M&#233;decine" type="resto" zone="Marseille"><contact>&lt;h2&gt;Caf&#233;t&#233;ria de M&#233;decine&lt;/h2&gt;&lt;p&gt;27 boulevard Jean Moulin - 13005 Marseille&lt;br/&gt;&lt;b&gt;T&amp;#233;l&amp;#233;phone&lt;/b&gt; : 04 91 80 25 67&lt;/p&gt;</contact></resto><resto id="r650" lat="43.3339618" lon="5.4100892" title="Paul C&#233;zanne" type="resto" zone="Marseille"><contact>&lt;h2&gt;Paul C&#233;zanne&lt;/h2&gt;&lt;p&gt;Avenue Escadrille Normandie Nie?men - 13013 Marseille&lt;br/&gt;&lt;b&gt;T&amp;#233;l&amp;#233;phone&lt;/b&gt; : 04 91 28 88 18&lt;/p&gt;</contact></resto><resto id="r651" lat="43.3047761" lon="5.3775126" title="Caf&#233;t&#233;ria Saint-Charles" type="resto" zone="Marseille"><contact>&lt;h2&gt;Caf&#233;t&#233;ria Saint-Charles&lt;/h2&gt;&lt;p&gt;3 place Victor Hugo - 13331 Marseille cedex 3&lt;br/&gt;&lt;b&gt;T&amp;#233;l&amp;#233;phone&lt;/b&gt; : 04 91 62 83 71 o&lt;/p&gt;</contact></resto><resto id="r652" lat="43.3775529" lon="5.3615443" title="M&#233;decine Nord" type="resto" zone="Marseille"><contact>&lt;h2&gt;M&#233;decine Nord&lt;/h2&gt;&lt;p&gt;Boulevard Pierre Dramard - 13015 Marseille&lt;br/&gt;&lt;b&gt;T&amp;#233;l&amp;#233;phone&lt;/b&gt; : 04 91 69 88 05&lt;/p&gt;</contact></resto><resto id="r653" lat="43.2881033" lon="5.4033631" title="Pharmacie" type="resto" zone="Marseille"><contact>&lt;h2&gt;Pharmacie&lt;/h2&gt;&lt;p&gt;27 boulevard Jean Moulin - 13005 Marseille&lt;br/&gt;&lt;b&gt;T&amp;#233;l&amp;#233;phone&lt;/b&gt; : 04 91 25 97 28&lt;/p&gt;</contact></resto><resto id="r654" lat="43.2969164" lon="5.3825864" title="Caf&#233;t&#233;ria Thiers" type="resto" zone="Marseille"><contact>&lt;h2&gt;Caf&#233;t&#233;ria Thiers&lt;/h2&gt;&lt;p&gt;5 place du Lyce?e - 13001 Marseille&lt;br/&gt;&lt;b&gt;T&amp;#233;l&amp;#233;phone&lt;/b&gt; : 04 91 94 90 14&lt;/p&gt;</contact></resto><resto id="r655" lat="43.9098935" lon="4.8912057" title="Agroparc" type="resto" zone="Avignon"><contact>&lt;h2&gt;Agroparc&lt;/h2&gt;&lt;p&gt;106 avenue Michel Montaigne - 84000 Avignon&lt;br/&gt;&lt;b&gt;T&amp;#233;l&amp;#233;phone&lt;/b&gt; : 04 90 84 07 75&lt;/p&gt;</contact></resto><resto id="r656" lat="43.9494466" lon="4.8169987" title="Sainte-Marthe" type="resto" zone="Avignon"><contact>&lt;h2&gt;Sainte-Marthe&lt;/h2&gt;&lt;p&gt;74 rue Louis Pasteur - 84000 Avignon&lt;br/&gt;&lt;b&gt;T&amp;#233;l&amp;#233;phone&lt;/b&gt; : 04 90 80 65 26&lt;/p&gt;</contact></resto><resto id="r657" lat="43.9494466" lon="4.8169987" title="Caf&#233;t&#233;ria Sainte-Marthe" type="resto" zone="Avignon"><contact>&lt;h2&gt;Caf&#233;t&#233;ria Sainte-Marthe&lt;/h2&gt;&lt;p&gt;74 rue Louis Pasteur - 84000 Avignon&lt;br/&gt;&lt;b&gt;T&amp;#233;l&amp;#233;phone&lt;/b&gt; : 04 90 80 65 26&lt;/p&gt;</contact></resto><resto id="r1" lat="49.8728469" lon="2.265" title="Restaurant du Bailly" type="resto" zone="AMIENS CAMPUS"><contact>&lt;h2&gt;Restaurant du Bailly&lt;/h2&gt;&lt;p&gt; avenue des Facult&#233;s, SALOUEL&lt;br/&gt;&lt;b&gt;T&amp;#233;l&amp;#233;phone&lt;/b&gt; : 03.22.71.91.50&lt;br/&gt;&lt;b&gt;E-mail&lt;/b&gt; : ru.amiens-sud.secretariat@crous-amiens.fr&lt;/p&gt;</contact></resto><resto id="r2" lat="49.8775" lon="2.2641236" title="Caf&#233;t&#233;ria de la Rotonde" type="cafeteria" zone="AMIENS CAMPUS"><contact>&lt;h2&gt;Caf&#233;t&#233;ria de la Rotonde&lt;/h2&gt;&lt;p&gt;chemin du Thil, SALOUEL&lt;br/&gt;&lt;b&gt;T&amp;#233;l&amp;#233;phone&lt;/b&gt; : 03.22.89.14.27&lt;br/&gt;&lt;b&gt;E-mail&lt;/b&gt; : ru.amiens-sud.secretariat@crous-amiens.fr&lt;/p&gt;</contact></resto><resto id="r3" lat="49.8996519" lon="2.2914433" title="Restaurant de l'ESIEE" type="resto" zone="AMIENS CENTRE"><contact>&lt;h2&gt;Restaurant de l'ESIEE&lt;/h2&gt;&lt;p&gt;14 quai de la Somme, 80000 AMIENS&lt;br/&gt;&lt;b&gt;T&amp;#233;l&amp;#233;phone&lt;/b&gt; : 03.22.43.54.83&lt;br/&gt;&lt;b&gt;E-mail&lt;/b&gt; : ru.amiens-centre.secretariat@crous-amiens.fr&lt;/p&gt;</contact></resto><resto id="r4" lat="49.9020228" lon="2.2929127" title="Caf&#233;t&#233;ria de la facult&#233; des arts" type="cafeteria" zone="AMIENS CENTRE"><contact>&lt;h2&gt;Caf&#233;t&#233;ria de la facult&#233; des arts&lt;/h2&gt;&lt;p&gt;rue des Teinturiers, 80000 AMIENS&lt;br/&gt;&lt;b&gt;T&amp;#233;l&amp;#233;phone&lt;/b&gt; : 03.22.71.24.87&lt;br/&gt;&lt;b&gt;E-mail&lt;/b&gt; : ru.amiens-centre.secretariat@crous-amiens.fr&lt;/p&gt;</contact></resto><resto id="r5" lat="49.8966459" lon="2.3017" title="Restaurant Saint-Leu" type="resto" zone="AMIENS CENTRE"><contact>&lt;h2&gt;Restaurant Saint-Leu&lt;/h2&gt;&lt;p&gt;rue de la Plumette, 80000 AMIENS&lt;br/&gt;&lt;b&gt;T&amp;#233;l&amp;#233;phone&lt;/b&gt; : 03.22.71.24.87&lt;br/&gt;&lt;b&gt;E-mail&lt;/b&gt; : ru.amiens-centre.secretariat@crous-amiens.fr&lt;/p&gt;</contact></resto><resto id="r6" lat="49.8979" lon="2.2987" title="Restaurant de la Veill&#232;re" type="resto" zone="AMIENS CENTRE"><contact>&lt;h2&gt;Restaurant de la Veill&#232;re&lt;/h2&gt;&lt;p&gt;petite rue de la Veill&#232;re, 80000 AMIENS&lt;br/&gt;&lt;b&gt;T&amp;#233;l&amp;#233;phone&lt;/b&gt; : 03.22.71.24.60&lt;br/&gt;&lt;b&gt;E-mail&lt;/b&gt; : ru.amiens-centre.secretariat@crous-amiens.fr&lt;/p&gt;</contact></resto><resto id="r7" lat="49.8962872" lon="2.301496" title="Caf&#233;t&#233;ria de la FAC de droit et d'&#233;conomie" type="cafeteria" zone="AMIENS CENTRE"><contact>&lt;h2&gt;Caf&#233;t&#233;ria de la FAC de droit et d'&#233;conomie&lt;/h2&gt;&lt;p&gt;10 venelle Lafleur, 80000 AMIENS&lt;br/&gt;&lt;b&gt;T&amp;#233;l&amp;#233;phone&lt;/b&gt; : 03.22.71.24.87&lt;br/&gt;&lt;b&gt;E-mail&lt;/b&gt; : ru.amiens-centre.secretariat@crous-amiens.fr&lt;/p&gt;</contact></resto><resto id="r8" lat="49.8909794" lon="2.2926441" title="Caf&#233;t&#233;ria Saint-Charles" type="cafeteria" zone="AMIENS CENTRE"><contact>&lt;h2&gt;Caf&#233;t&#233;ria Saint-Charles&lt;/h2&gt;&lt;p&gt;rue des Louvels, 80000 AMIENS&lt;br/&gt;&lt;b&gt;T&amp;#233;l&amp;#233;phone&lt;/b&gt; : 03.22.82.79.02&lt;br/&gt;&lt;b&gt;E-mail&lt;/b&gt; : ru.amiens-sud.secretariat@crous-amiens.fr&lt;/p&gt;</contact></resto><resto id="r9" lat="49.4313982" lon="2.0897563" title="Restaurant du Jeu de Paume" type="resto" zone="BEAUVAIS"><contact>&lt;h2&gt;Restaurant du Jeu de Paume&lt;/h2&gt;&lt;p&gt;52 bd St-Andr&#233;, 60000 BEAUVAIS&lt;br/&gt;&lt;b&gt;T&amp;#233;l&amp;#233;phone&lt;/b&gt; : 03.22.71.91.04&lt;br/&gt;&lt;b&gt;E-mail&lt;/b&gt; : ru.jeudepaume@crous-amiens.fr&lt;/p&gt;</contact></resto><resto id="r10" lat="49.4597441" lon="2.0708506" title="Restaurant Lasalle Beauvais" type="resto" zone="BEAUVAIS"><contact>&lt;h2&gt;Restaurant Lasalle Beauvais&lt;/h2&gt;&lt;p&gt;rue Pierre Waguet, 60000 BEAUVAIS&lt;br/&gt;&lt;b&gt;T&amp;#233;l&amp;#233;phone&lt;/b&gt; : 03.44.06.93.22&lt;br/&gt;&lt;b&gt;E-mail&lt;/b&gt; : ru.iplb@crous-amiens.fr&lt;/p&gt;</contact></resto><resto id="r11" lat="49.4154029" lon="2.8198847" title="Restaurant du Port &#224; Bateaux" type="resto" zone="COMPIEGNE"><contact>&lt;h2&gt;Restaurant du Port &#224; Bateaux&lt;/h2&gt;&lt;p&gt;25 rue du Port &#224; Bateaux, COMPIEGNE&lt;br/&gt;&lt;b&gt;T&amp;#233;l&amp;#233;phone&lt;/b&gt; : 03.44.92.15.15&lt;br/&gt;&lt;b&gt;E-mail&lt;/b&gt; : ru.portabateaux@crous-amiens.fr&lt;/p&gt;</contact></resto><resto id="r12" lat="49.400435" lon="2.800116" title="Caf&#233;t&#233;ria Pierre Guillaumat" type="cafeteria" zone="COMPIEGNE"><contact>&lt;h2&gt;Caf&#233;t&#233;ria Pierre Guillaumat&lt;/h2&gt;&lt;p&gt;rue du Dr Schweitzer, 60000 COMPIEGNE&lt;br/&gt;&lt;b&gt;T&amp;#233;l&amp;#233;phone&lt;/b&gt; : 03.44.95.15.15&lt;/p&gt;</contact></resto><resto id="r13" lat="49.401119" lon="2.795675" title="Restaurant Magellan" type="resto" zone="COMPIEGNE"><contact>&lt;h2&gt;Restaurant Magellan&lt;/h2&gt;&lt;p&gt;Avenue de Landshut, 60000 Compi&#232;gne&lt;br/&gt;&lt;b&gt;T&amp;#233;l&amp;#233;phone&lt;/b&gt; : 03.44.92.15.15&lt;br/&gt;&lt;b&gt;E-mail&lt;/b&gt; : ru.portabateaux@crous-amiens.fr&lt;/p&gt;</contact></resto><resto id="r14" lat="49.6520553" lon="3.6723205" title="Restaurant de Laon" type="resto" zone="AISNE"><contact>&lt;h2&gt;Restaurant de Laon&lt;/h2&gt;&lt;p&gt;2 rue Pierre et Marie Curie, LAON&lt;br/&gt;&lt;b&gt;T&amp;#233;l&amp;#233;phone&lt;/b&gt; : 03.22.71.91.08&lt;br/&gt;&lt;b&gt;E-mail&lt;/b&gt; : ru.laon@crous-amiens.fr&lt;/p&gt;</contact></resto><resto id="r133" lat="49.8966459" lon="2.302128" title="Caf&#233;t&#233;ria Saint-Leu" type="cafeteria" zone="AMIENS CENTRE"><contact>&lt;h2&gt;Caf&#233;t&#233;ria Saint-Leu&lt;/h2&gt;&lt;p&gt;rue de la Plumette, 80000 AMIENS&lt;br/&gt;&lt;b&gt;T&amp;#233;l&amp;#233;phone&lt;/b&gt; : 03.22.71.24.87&lt;br/&gt;&lt;b&gt;E-mail&lt;/b&gt; : ru.amiens-centre.secretariat@crous-amiens.fr&lt;/p&gt;</contact></resto><resto id="r134" lat="49.8980382" lon="2.299" title="Caf&#233;t&#233;ria de la Veill&#232;re" type="cafeteria" zone="AMIENS CENTRE"><contact>&lt;h2&gt;Caf&#233;t&#233;ria de la Veill&#232;re&lt;/h2&gt;&lt;p&gt;petite rue de la Veill&#232;re, 80000 AMIENS&lt;br/&gt;&lt;b&gt;T&amp;#233;l&amp;#233;phone&lt;/b&gt; : 03.22.71.24.60&lt;br/&gt;&lt;b&gt;E-mail&lt;/b&gt; : ru.amiens-centre.secretariat@crous-amiens.fr&lt;/p&gt;</contact></resto><resto id="r127" lat="49.8728469" lon="2.2655" title="Caf&#233;t&#233;ria du Bailly" type="cafeteria" zone="AMIENS CAMPUS"><contact>&lt;h2&gt;Caf&#233;t&#233;ria du Bailly&lt;/h2&gt;&lt;p&gt; avenue des Facult&#233;s, SALOUEL&lt;br/&gt;&lt;b&gt;T&amp;#233;l&amp;#233;phone&lt;/b&gt; : 03.22.71.91.50&lt;br/&gt;&lt;b&gt;E-mail&lt;/b&gt; : ru.amiens-sud.secretariat@crous-amiens.fr&lt;/p&gt;</contact></resto><resto id="r370" lat="49.8354798" lon="3.2947525" title="Restaurant de l'ESAT L'ENVOL ST QUENTIN" type="resto" zone="AISNE"><contact>&lt;h2&gt;Restaurant de l'ESAT L'ENVOL ST QUENTIN&lt;/h2&gt;&lt;p&gt;52 rue jean cocteau, 02100 Saint-Quentin&lt;br/&gt;&lt;b&gt;T&amp;#233;l&amp;#233;phone&lt;/b&gt; : 03.44.92.15.15&lt;br/&gt;&lt;b&gt;E-mail&lt;/b&gt; : ru.portabateaux@crous-amiens.fr&lt;/p&gt;</contact></resto><resto id="r779" lat="49.415283" lon="2.819436" title="Caf&#233;t&#233;ria Philanthrope" type="cafeteria" zone="COMPIEGNE"><contact>&lt;h2&gt;Caf&#233;t&#233;ria Philanthrope&lt;/h2&gt;&lt;p&gt;rue du Port &#224; Bateaux, COMPIEGNE&lt;br/&gt;&lt;b&gt;T&amp;#233;l&amp;#233;phone&lt;/b&gt; : 03.44.92.15.15&lt;br/&gt;&lt;b&gt;E-mail&lt;/b&gt; : ru.portabateaux@crous-amiens.fr&lt;/p&gt;</contact></resto><resto id="r788" lat="49.41522" lon="2.8201" title="Caf&#233;t&#233;ria du Port &#224; Bateaux" type="cafeteria" zone="COMPIEGNE"><contact>&lt;h2&gt;Caf&#233;t&#233;ria du Port &#224; Bateaux&lt;/h2&gt;&lt;p&gt;25 rue du Port &#224; Bateaux, COMPIEGNE&lt;br/&gt;&lt;b&gt;T&amp;#233;l&amp;#233;phone&lt;/b&gt; : 03.44.92.15.15&lt;br/&gt;&lt;b&gt;E-mail&lt;/b&gt; : ru.portabateaux@crous-amiens.fr&lt;/p&gt;</contact></resto><resto id="r844" lat="49.876867" lon="2.263157" title="Food-truck" type="cafeteria" zone="AMIENS CAMPUS"><contact>&lt;h2&gt;Food-truck&lt;/h2&gt;&lt;p&gt;Bat G, chemin du Thil, campus, AMIENS&lt;br/&gt;&lt;b&gt;T&amp;#233;l&amp;#233;phone&lt;/b&gt; : 03.22.53.10.90&lt;br/&gt;&lt;b&gt;E-mail&lt;/b&gt; : ru.amiens-sud.secretariat@crous-amiens.fr&lt;/p&gt;</contact></resto><resto id="r845" lat="49.400942" lon="3.330288" title="Restaurant de Cuffies" type="resto" zone="AISNE"><contact>&lt;h2&gt;Restaurant de Cuffies&lt;/h2&gt;&lt;p&gt;13 Avenue Fran&#231;ois Mitterrand, 02880 Cuffies&lt;br/&gt;&lt;b&gt;T&amp;#233;l&amp;#233;phone&lt;/b&gt; : 03.44.92.15.15&lt;br/&gt;&lt;b&gt;E-mail&lt;/b&gt; : ru.portabateaux@crous-amiens.fr&lt;/p&gt;</contact></resto><resto id="r468" lat="16.2237701" lon="-61.5271988" title="Restaurant Universitaire de Fouillole" type="resto" zone="Guadeloupe"><contact>&lt;h2&gt;Restaurant Universitaire de Fouillole&lt;/h2&gt;&lt;p&gt;Campus de Fouillole &lt;br/&gt;&lt;b&gt;T&amp;#233;l&amp;#233;phone&lt;/b&gt; : 0590894648&lt;br/&gt;&lt;b&gt;E-mail&lt;/b&gt; : resto-fouillole@crous-antillesguyane.fr&lt;/p&gt;</contact></resto><resto id="r512" lat="16.2233786391591" lon="-61.5284004296387" title="Caf&#233;t&#233;ria pr&#232;s du SCUIO" type="cafeteria" zone="Guadeloupe"><contact>&lt;h2&gt;Caf&#233;t&#233;ria pr&#232;s du SCUIO&lt;/h2&gt;&lt;p&gt;Campus de Fouillole &lt;br/&gt;&lt;b&gt;T&amp;#233;l&amp;#233;phone&lt;/b&gt; :  0590 89 46 48&lt;br/&gt;&lt;b&gt;E-mail&lt;/b&gt; : resto-fouillole@crous-antillesguyane.fr&lt;/p&gt;</contact></resto><resto id="r514" lat="4.93225" lon="-52.300701" title="Caf&#233;t&#233;ria de Troubiran" type="cafeteria" zone="Guyane"><contact>&lt;h2&gt;Caf&#233;t&#233;ria de Troubiran&lt;/h2&gt;&lt;p&gt;Cayenne&lt;br/&gt;&lt;b&gt;T&amp;#233;l&amp;#233;phone&lt;/b&gt; : 0594 37 85 14&lt;/p&gt;</contact></resto><resto id="r515" lat="5.1597" lon="-52.6503" title="Restaurant de la r&#233;sidence de Kourou" type="resto" zone="Guyane"><contact>&lt;h2&gt;Restaurant de la r&#233;sidence de Kourou&lt;/h2&gt;&lt;p&gt;Kourou&lt;br/&gt;&lt;b&gt;T&amp;#233;l&amp;#233;phone&lt;/b&gt; : 0594 32 58 00&lt;/p&gt;</contact></resto><resto id="r774" lat="14.620124" lon="-61.092694" title="Buvette de la biblioth&#232;que universitaire" type="cafeteria" zone="Martinique "><contact>&lt;h2&gt;Buvette de la biblioth&#232;que universitaire&lt;/h2&gt;&lt;p&gt;Campus de Schoelcher&lt;br/&gt;&lt;b&gt;T&amp;#233;l&amp;#233;phone&lt;/b&gt; : 0596615355&lt;br/&gt;&lt;b&gt;E-mail&lt;/b&gt; : resto-schoelcher@crous-antillesguyane.fr&lt;/p&gt;</contact></resto><resto id="r771" lat="16.2258510103531" lon="-61.5316727246368" title="Caf&#233;t&#233;ria UFR SJE" type="cafeteria" zone="Guadeloupe"><contact>&lt;h2&gt;Caf&#233;t&#233;ria UFR SJE&lt;/h2&gt;&lt;p&gt;Campus de fouillole - UFR SJE&lt;br/&gt;&lt;b&gt;T&amp;#233;l&amp;#233;phone&lt;/b&gt; : 0590894648&lt;br/&gt;&lt;b&gt;E-mail&lt;/b&gt; : resto-fouillole@crous-antillesguyane.fr&lt;/p&gt;</contact></resto><resto id="r772" lat="16.027477" lon="-61.701589" title="Restaurant universitaire de Saint-Claude" type="resto" zone="Guadeloupe"><contact>&lt;h2&gt;Restaurant universitaire de Saint-Claude&lt;/h2&gt;&lt;p&gt;Campus du Camp Jacob&lt;br/&gt;&lt;b&gt;T&amp;#233;l&amp;#233;phone&lt;/b&gt; : 0590607481&lt;br/&gt;&lt;b&gt;E-mail&lt;/b&gt; : resto-camp-jacob@crous-antillesguyane.fr&lt;/p&gt;</contact></resto><resto id="r773" lat="14.620024" lon="-61.0929926" title="Restaurant universitaire de Schoelcher" type="resto" zone="Martinique "><contact>&lt;h2&gt;Restaurant universitaire de Schoelcher&lt;/h2&gt;&lt;p&gt;Campus de Schoelcher&lt;br/&gt;&lt;b&gt;T&amp;#233;l&amp;#233;phone&lt;/b&gt; : 0596615355&lt;br/&gt;&lt;b&gt;E-mail&lt;/b&gt; : resto-schoelcher@crous-antillesguyane.fr&lt;/p&gt;</contact></resto><resto id="r135" lat="47.2488353" lon="5.9872692" title="Restaurant Lumi&#232;re" type="resto" zone="Besan&#231;on - Campus de la Bouloie"><contact>&lt;h2&gt;Restaurant Lumi&#232;re&lt;/h2&gt;&lt;p&gt;42 avenue de l'Observatoire  25003 Besan&#231;on  (Sur le campus)&lt;br/&gt;&lt;b&gt;T&amp;#233;l&amp;#233;phone&lt;/b&gt; : 03 81 48 45 00&lt;br/&gt;&lt;b&gt;E-mail&lt;/b&gt; : pole-restauration-besancon@crous-besancon.fr&lt;/p&gt;</contact></resto><resto id="r143" lat="47.237971" lon="6.0174942" title="Restaurant Canot" type="resto" zone="Besan&#231;on - Centre ville"><contact>&lt;h2&gt;Restaurant Canot&lt;/h2&gt;&lt;p&gt;Quai Veil Picard&lt;br/&gt;&lt;b&gt;T&amp;#233;l&amp;#233;phone&lt;/b&gt; : 03.81.48.45.22&lt;br/&gt;&lt;b&gt;E-mail&lt;/b&gt; : pole-restauration-besancon@crous-besancon.fr&lt;/p&gt;</contact></resto><resto id="r343" lat="47.2361253" lon="6.015622" title="Caf&#233; International" type="cafeteria" zone="Besan&#231;on - Centre ville"><contact>&lt;h2&gt;Caf&#233; International&lt;/h2&gt;&lt;p&gt;73 quai Veil Picard, 25000 Besancon&lt;br/&gt;&lt;b&gt;T&amp;#233;l&amp;#233;phone&lt;/b&gt; : 03.81.48.45.22&lt;br/&gt;&lt;b&gt;E-mail&lt;/b&gt; : pole-restauration-besancon@crous-besancon.fr&lt;/p&gt;</contact></resto><resto id="r344" lat="47.24645" lon="5.987978" title="Restaurant Petit Bouloie" type="resto" zone="Besan&#231;on - Campus de la Bouloie"><contact>&lt;h2&gt;Restaurant Petit Bouloie&lt;/h2&gt;&lt;p&gt;45, avenue de l'Observatoire, 2500 Besan&#231;on&lt;br/&gt;&lt;b&gt;T&amp;#233;l&amp;#233;phone&lt;/b&gt; : 03 81 48 45 40&lt;br/&gt;&lt;b&gt;E-mail&lt;/b&gt; : pole-restauration-besancon@crous-besancon.fr&lt;/p&gt;</contact></resto><resto id="r345" lat="47.2339525" lon="6.0262485" title="Restaurant M&#233;gevand" type="resto" zone="Besan&#231;on - Centre ville"><contact>&lt;h2&gt;Restaurant M&#233;gevand&lt;/h2&gt;&lt;p&gt;36 rue M&#233;gevand, 25000 Besancon&lt;br/&gt;&lt;b&gt;T&amp;#233;l&amp;#233;phone&lt;/b&gt; : 03.81.48.45.33&lt;br/&gt;&lt;b&gt;E-mail&lt;/b&gt; : pole-restauration-besancon@crous-besancon.fr&lt;/p&gt;</contact></resto><resto id="r346" lat="47.224391" lon="5.957555" title="Hauts du Chazal" type="resto" zone="Besan&#231;on - Hauts du Chazal"><contact>&lt;h2&gt;Hauts du Chazal&lt;/h2&gt;&lt;p&gt;22 rue ambroise par&#233;, 25000 besancon&lt;br/&gt;&lt;b&gt;T&amp;#233;l&amp;#233;phone&lt;/b&gt; : 03 81 65 78 22&lt;br/&gt;&lt;b&gt;E-mail&lt;/b&gt; : pole-restauration-besancon@crous-besancon.fr&lt;/p&gt;</contact></resto><resto id="r347" lat="47.6295943" lon="6.1202429" title="Restaurant Universitaire de l'IUT" type="resto" zone="Vesoul"><contact>&lt;h2&gt;Restaurant Universitaire de l'IUT&lt;/h2&gt;&lt;p&gt;Avenue des rives du lac, 70000 Vesoul&lt;br/&gt;&lt;b&gt;T&amp;#233;l&amp;#233;phone&lt;/b&gt; : 03 84 75 52 50&lt;br/&gt;&lt;b&gt;E-mail&lt;/b&gt; : pole-restauration-besancon@crous-besancon.fr&lt;/p&gt;</contact></resto><resto id="r348" lat="47.6434375" lon="6.8370382" title="Restaurant Duvillard" type="resto" zone="Belfort"><contact>&lt;h2&gt;Restaurant Duvillard&lt;/h2&gt;&lt;p&gt;Rue Ernest Duvillard, 90000 Belfort&lt;br/&gt;&lt;b&gt;T&amp;#233;l&amp;#233;phone&lt;/b&gt; : 03 84 21 06 01&lt;br/&gt;&lt;b&gt;E-mail&lt;/b&gt; : restauration-nfc@crous-besancon.fr&lt;/p&gt;</contact></resto><resto id="r349" lat="47.590073" lon="6.867485" title="Restaurant S&#233;venans" type="resto" zone="S&#233;venans"><contact>&lt;h2&gt;Restaurant S&#233;venans&lt;/h2&gt;&lt;p&gt;Esplanade de l'UTBM, 90400 Belfort&lt;br/&gt;&lt;b&gt;T&amp;#233;l&amp;#233;phone&lt;/b&gt; : 03 84 58 38 38&lt;br/&gt;&lt;b&gt;E-mail&lt;/b&gt; : restauration-nfc@crous-besancon.fr&lt;/p&gt;</contact></resto><resto id="r350" lat="47.510356" lon="6.798466" title="Restaurant Portes du Jura" type="resto" zone="Montb&#233;liard"><contact>&lt;h2&gt;Restaurant Portes du Jura&lt;/h2&gt;&lt;p&gt;P&#244;le Universitaire 4, Place Tharradin, 25200 Montb&#233;liard&lt;br/&gt;&lt;b&gt;T&amp;#233;l&amp;#233;phone&lt;/b&gt; : 03 81 98 50 98&lt;br/&gt;&lt;b&gt;E-mail&lt;/b&gt; : restauration-nfc@crous-besancon.fr&lt;/p&gt;</contact></resto><resto id="r396" lat="43.313083" lon="-0.367188" title="Resto U Cap Sud" type="resto" zone="Pau"><contact>&lt;h2&gt;Resto U Cap Sud&lt;/h2&gt;&lt;p&gt;2, avenue Poplawski 64000 PAU&lt;br/&gt;&lt;b&gt;T&amp;#233;l&amp;#233;phone&lt;/b&gt; : 05.59.14.01.77&lt;/p&gt;</contact></resto><resto id="r399" lat="44.8370306" lon="-0.5778773" title="Caf&#233;t&#233;ria La Soucoupe" type="resto" zone="Talence"><contact>&lt;h2&gt;Caf&#233;t&#233;ria La Soucoupe&lt;/h2&gt;&lt;p&gt;Universit&#233; de Bordeaux  351, cours de la Lib&#233;ration 33400 TALENCE cedex&lt;br/&gt;&lt;b&gt;T&amp;#233;l&amp;#233;phone&lt;/b&gt; : 05.40.00.29.23&lt;/p&gt;</contact></resto><resto id="r390" lat="45.194876" lon="0.7133078" title="Resto U L'Entracte" type="resto" zone="Dordogne"><contact>&lt;h2&gt;Resto U L'Entracte&lt;/h2&gt;&lt;p&gt;47 rue Jean Secret 24000 PERIGUEUX&lt;br/&gt;&lt;b&gt;T&amp;#233;l&amp;#233;phone&lt;/b&gt; : 05 53 08 17 93&lt;/p&gt;</contact></resto><resto id="r391" lat="45.199807" lon="0.718688" title="Caf&#233;t&#233;ria L'Accro'p&#244;le" type="resto" zone="Dordogne"><contact>&lt;h2&gt;Caf&#233;t&#233;ria L'Accro'p&#244;le&lt;/h2&gt;&lt;p&gt;rue du Doyen Lajugie 24000 PERIGUEUX&lt;br/&gt;&lt;b&gt;T&amp;#233;l&amp;#233;phone&lt;/b&gt; : 05.53.02.60.97&lt;/p&gt;</contact></resto><resto id="r393" lat="44.2089781" lon="0.6251007" title="Caf&#233;t&#233;ria La P&#233;niche" type="resto" zone="Lot et Garonne"><contact>&lt;h2&gt;Caf&#233;t&#233;ria La P&#233;niche&lt;/h2&gt;&lt;p&gt;4, quai de Dunkerque 47000 AGEN&lt;br/&gt;&lt;b&gt;T&amp;#233;l&amp;#233;phone&lt;/b&gt; : 05.53.87.88.69&lt;/p&gt;</contact></resto><resto id="r394" lat="43.316455" lon="-0.367087" title="Caf&#233;t&#233;ria Arlequin" type="resto" zone="Pau"><contact>&lt;h2&gt;Caf&#233;t&#233;ria Arlequin&lt;/h2&gt;&lt;p&gt;Facult&#233; de Droit 64000 PAU&lt;br/&gt;&lt;b&gt;T&amp;#233;l&amp;#233;phone&lt;/b&gt; : 05.59.02.75.01&lt;/p&gt;</contact></resto><resto id="r395" lat="43.315813" lon="-0.364055" title="Brasserie Universitaire La Vague" type="resto" zone="Pau"><contact>&lt;h2&gt;Brasserie Universitaire La Vague&lt;/h2&gt;&lt;p&gt;Avenue de l'Universit&#233; 64000 PAU&lt;br/&gt;&lt;b&gt;T&amp;#233;l&amp;#233;phone&lt;/b&gt; : 05.59.84.91.01&lt;/p&gt;</contact></resto><resto id="r397" lat="43.4908545" lon="-1.4715989" title="Resto U de la Nive" type="resto" zone="C&#244;te basque"><contact>&lt;h2&gt;Resto U de la Nive&lt;/h2&gt;&lt;p&gt;79 rue Bourgneuf 64100 BAYONNE&lt;br/&gt;&lt;b&gt;T&amp;#233;l&amp;#233;phone&lt;/b&gt; : 05.59.63.20.66&lt;/p&gt;</contact></resto><resto id="r398" lat="43.4767" lon="-1.508478" title="Resto U Pierre Bidart" type="resto" zone="C&#244;te basque"><contact>&lt;h2&gt;Resto U Pierre Bidart&lt;/h2&gt;&lt;p&gt;55, rue Mirambeau 64600 Anglet &lt;br/&gt;&lt;b&gt;T&amp;#233;l&amp;#233;phone&lt;/b&gt; : 05.59.01.40.10&lt;/p&gt;</contact></resto><resto id="r401" lat="44.85164" lon="-0.56934" title="Resto U Les Chartrons" type="resto" zone="Bordeaux"><contact>&lt;h2&gt;Resto U Les Chartrons&lt;/h2&gt;&lt;p&gt;98, quai des Chartrons 33000 Bordeaux&lt;/p&gt;</contact></resto><resto id="r402" lat="44.79427" lon="-0.620645" title="Caf&#233;t&#233;ria Le Sirtaki" type="resto" zone="Pessac"><contact>&lt;h2&gt;Caf&#233;t&#233;ria Le Sirtaki&lt;/h2&gt;&lt;p&gt;23, Esplanade des Antilles 33600 PESSAC&lt;br/&gt;&lt;b&gt;T&amp;#233;l&amp;#233;phone&lt;/b&gt; : 05.57.96.76.77&lt;/p&gt;</contact></resto><resto id="r403" lat="44.79427" lon="-0.620645" title="Le Croustillant" type="resto" zone="Pessac"><contact>&lt;h2&gt;Le Croustillant&lt;/h2&gt;&lt;p&gt;Proche de la caf&#233;t&#233;ria Le Sirtaki&lt;/p&gt;</contact></resto><resto id="r405" lat="44.830278" lon="-0.565821" title="Resto U Le Cap'U / Caf&#233;t&#233;ria Eujen" type="resto" zone="Bordeaux"><contact>&lt;h2&gt;Resto U Le Cap'U / Caf&#233;t&#233;ria Eujen&lt;/h2&gt;&lt;p&gt;15 rue Jules Guesde 33800 BORDEAUX&lt;br/&gt;&lt;b&gt;T&amp;#233;l&amp;#233;phone&lt;/b&gt; : 05.56.92.75.30&lt;/p&gt;</contact></resto><resto id="r406" lat="44.831328" lon="-0.572258" title="Caf&#233;t&#233;ria Le Mus&#233;e" type="resto" zone="Bordeaux"><contact>&lt;h2&gt;Caf&#233;t&#233;ria Le Mus&#233;e&lt;/h2&gt;&lt;p&gt;3 ter, Place de la Victoire 33000 BORDEAUX&lt;/p&gt;</contact></resto><resto id="r407" lat="44.794521" lon="-0.620002" title="Caf&#233;t&#233;ria Le V&#233;racruz" type="resto" zone="Pessac"><contact>&lt;h2&gt;Caf&#233;t&#233;ria Le V&#233;racruz&lt;/h2&gt;&lt;p&gt;Avenue Maine de Biran (&#224; cot&#233; du Village 3) 33608 PESSAC CEDEX&lt;br/&gt;&lt;b&gt;T&amp;#233;l&amp;#233;phone&lt;/b&gt; : 05.57.96.94.18&lt;/p&gt;</contact></resto><resto id="r408" lat="44.799347" lon="-0.615002" title="Caf&#233;t&#233;ria Le Forum" type="resto" zone="Pessac"><contact>&lt;h2&gt;Caf&#233;t&#233;ria Le Forum&lt;/h2&gt;&lt;p&gt;2 Avenue L&#233;on Duguit 33600 PESSAC&lt;br/&gt;&lt;b&gt;T&amp;#233;l&amp;#233;phone&lt;/b&gt; : 05.56.37.26.00&lt;/p&gt;</contact></resto><resto id="r409" lat="44.801843" lon="-0.608148" title="Le Vent Debout" type="resto" zone="Pessac"><contact>&lt;h2&gt;Le Vent Debout&lt;/h2&gt;&lt;p&gt;Avenue des facult&#233;s 33608 PESSAC&lt;br/&gt;&lt;b&gt;T&amp;#233;l&amp;#233;phone&lt;/b&gt; : 05.56.80.67.55&lt;/p&gt;</contact></resto><resto id="r410" lat="44.791673" lon="-0.613736" title="Resto U n&#176;3" type="resto" zone="Gradignan"><contact>&lt;h2&gt;Resto U n&#176;3&lt;/h2&gt;&lt;p&gt;Avenue Camille Jullian 33170 GRADIGNAN&lt;br/&gt;&lt;b&gt;T&amp;#233;l&amp;#233;phone&lt;/b&gt; : 05 56 80 79 21&lt;/p&gt;</contact></resto><resto id="r411" lat="44.8100353" lon="-0.5945264" title="Restaurant administratif Le Haut-Carr&#233;" type="resto" zone="Talence"><contact>&lt;h2&gt;Restaurant administratif Le Haut-Carr&#233;&lt;/h2&gt;&lt;p&gt;43, rue Pierre Noailles 33400 TALENCE&lt;br/&gt;&lt;b&gt;T&amp;#233;l&amp;#233;phone&lt;/b&gt; :  05.40.00.34.50&lt;br/&gt;&lt;b&gt;E-mail&lt;/b&gt; : logorest.hautcarre@crous-bordeaux.fr&lt;/p&gt;</contact></resto><resto id="r412" lat="44.808401" lon="-0.603943" title="Resto U n&#176;1 " type="resto" zone="Talence"><contact>&lt;h2&gt;Resto U n&#176;1 &lt;/h2&gt;&lt;p&gt;Avenue Pr&#233;vost 33405 TALENCE CEDEX&lt;br/&gt;&lt;b&gt;T&amp;#233;l&amp;#233;phone&lt;/b&gt; : 05.57.35.06.40&lt;/p&gt;</contact></resto><resto id="r659" lat="44.807401" lon="-0.60295" title="Caf&#233;teria Ester " type="resto" zone="Talence"><contact>&lt;h2&gt;Caf&#233;teria Ester &lt;/h2&gt;&lt;p&gt;Avenue Prevost 33400 Talence&lt;br/&gt;&lt;b&gt;T&amp;#233;l&amp;#233;phone&lt;/b&gt; : 05.57.35.06.46&lt;/p&gt;</contact></resto><resto id="r626" lat="44.7897032" lon="-0.6125757" title="Caf&#233;t&#233;ria de l'IUT" type="resto" zone="Gradignan"><contact>&lt;h2&gt;Caf&#233;t&#233;ria de l'IUT&lt;/h2&gt;&lt;p&gt;15 rue Naudet Gradignan&lt;/p&gt;</contact></resto><resto id="r415" lat="44.826169" lon="-0.605732" title="Resto U Le Mascaret" type="resto" zone="Bordeaux"><contact>&lt;h2&gt;Resto U Le Mascaret&lt;/h2&gt;&lt;p&gt;146 rue L&#233;o Saignat 33000 BORDEAUX&lt;br/&gt;&lt;b&gt;T&amp;#233;l&amp;#233;phone&lt;/b&gt; :  05.56.98.69.36&lt;/p&gt;</contact></resto><resto id="r416" lat="44.844216" lon="-0.557216" title="Caf&#233;t&#233;ria La Bastide" type="resto" zone="Bordeaux"><contact>&lt;h2&gt;Caf&#233;t&#233;ria La Bastide&lt;/h2&gt;&lt;p&gt;15 Avenue Abadie 33100 BORDEAUX&lt;br/&gt;&lt;b&gt;T&amp;#233;l&amp;#233;phone&lt;/b&gt; :  06.71.60.68.13&lt;/p&gt;</contact></resto><resto id="r658" lat="44.8006992" lon="-0.6108754" title="Resto U n&#176;2" type="resto" zone="Pessac"><contact>&lt;h2&gt;Resto U n&#176;2&lt;/h2&gt;&lt;p&gt;11 avenue Pey berland 33608 Pessac&lt;br/&gt;&lt;b&gt;T&amp;#233;l&amp;#233;phone&lt;/b&gt; : 05.56.80.67.55&lt;br/&gt;&lt;b&gt;E-mail&lt;/b&gt; : ru2@crous-bordeaux.fr&lt;/p&gt;</contact></resto><resto id="r362" lat="49.213380944128" lon="-0.365767478942871" title="Restaurant Cote de Nacre" type="resto" zone="Campus 2"><contact>&lt;h2&gt;Restaurant Cote de Nacre&lt;/h2&gt;&lt;p&gt;campus 2&lt;br/&gt;&lt;b&gt;E-mail&lt;/b&gt; : cotedenacre@crous-caen.fr&lt;/p&gt;</contact></resto><resto id="r363" lat="49.2000699243242" lon="-0.351522266864777" title="Restaurant C" type="resto" zone="Lebisey"><contact>&lt;h2&gt;Restaurant C&lt;/h2&gt;&lt;p&gt;7/9/10 rue du Recteur Daure -14000  Caen 14000 CAEN &lt;br/&gt;&lt;b&gt;T&amp;#233;l&amp;#233;phone&lt;/b&gt; : 02.31.46.74.74&lt;br/&gt;&lt;b&gt;E-mail&lt;/b&gt; : lebisey@crous-caen.fr&lt;/p&gt;</contact></resto><resto id="r366" lat="49.6310506198495" lon="-1.646476507885" title="La Passerelle" type="resto" zone="Cherbourg-Octeville"><contact>&lt;h2&gt;La Passerelle&lt;/h2&gt;&lt;p&gt;33, Avenue Ren&#233; Schmitt 50130 Cherbourg-Octeville&lt;br/&gt;&lt;b&gt;T&amp;#233;l&amp;#233;phone&lt;/b&gt; : 02 33 01 46 80&lt;br/&gt;&lt;b&gt;E-mail&lt;/b&gt; : ru.octeville@crous-caen.fr&lt;/p&gt;</contact></resto><resto id="r364" lat="49.1932591704791" lon="-0.36385640501976" title="Restaurant A" type="resto" zone="Campus 1"><contact>&lt;h2&gt;Restaurant A&lt;/h2&gt;&lt;p&gt;&lt;br/&gt;&lt;b&gt;T&amp;#233;l&amp;#233;phone&lt;/b&gt; : 02.31.56.63.50&lt;br/&gt;&lt;b&gt;E-mail&lt;/b&gt; : ru.campus1@crous-caen.fr&lt;/p&gt;</contact></resto><resto id="r365" lat="49.193904039603" lon="-0.36210123449564" title="Restaurant B" type="resto" zone="Campus 1"><contact>&lt;h2&gt;Restaurant B&lt;/h2&gt;&lt;p&gt;&lt;br/&gt;&lt;b&gt;T&amp;#233;l&amp;#233;phone&lt;/b&gt; : 02.31.56.63.50&lt;br/&gt;&lt;b&gt;E-mail&lt;/b&gt; : ru.campus1@crous-caen.fr&lt;/p&gt;</contact></resto><resto id="r367" lat="48.4455983380778" lon="0.0592406984651461" title="Les Colonnades" type="resto" zone="Alen&#231;on"><contact>&lt;h2&gt;Les Colonnades&lt;/h2&gt;&lt;p&gt;SITE UNIVERSITAIRE MONTFOULON 61250 DAMIGNY&lt;br/&gt;&lt;b&gt;T&amp;#233;l&amp;#233;phone&lt;/b&gt; : 02 33 80 51 50 &lt;br/&gt;&lt;b&gt;E-mail&lt;/b&gt; : ru.alencon@crous-caen.fr&lt;/p&gt;</contact></resto><resto id="r368" lat="49.1491297465792" lon="-0.353466868400574" title="Restaurant de IFS" type="resto" zone="Campus 3"><contact>&lt;h2&gt;Restaurant de IFS&lt;/h2&gt;&lt;p&gt;3 boulevard Yitzhak Rabin - 14123 IFS&lt;br/&gt;&lt;b&gt;T&amp;#233;l&amp;#233;phone&lt;/b&gt; : 02 31 52 55 81&lt;br/&gt;&lt;b&gt;E-mail&lt;/b&gt; : ru.campus1@crous-caen.fr&lt;/p&gt;</contact></resto><resto id="r369" lat="49.209520486996" lon="-0.356701612472534" title="RU Claude Bloch" type="resto" zone="Campus 4"><contact>&lt;h2&gt;RU Claude Bloch&lt;/h2&gt;&lt;p&gt;rue claude bloch, 14000 caen&lt;br/&gt;&lt;b&gt;T&amp;#233;l&amp;#233;phone&lt;/b&gt; : 02.31.56.63.50&lt;/p&gt;</contact></resto><resto id="r682" lat="49.1901870309638" lon="-0.364914536476135" title="La Parenth&#233;se" type="cafeteria" zone="Campus 1"><contact>&lt;h2&gt;La Parenth&#233;se&lt;/h2&gt;&lt;p&gt;Esplanade de la Paix 14000 Caen&lt;br/&gt;&lt;b&gt;T&amp;#233;l&amp;#233;phone&lt;/b&gt; : 02 31 56 63 50&lt;br/&gt;&lt;b&gt;E-mail&lt;/b&gt; : ru.campus1@crous-caen.fr&lt;/p&gt;</contact></resto><resto id="r683" lat="49.1925429513254" lon="-0.362017750740051" title="LA CAFET de la MAISON DE L'ETUDIANT" type="cafeteria" zone="Campus 1"><contact>&lt;h2&gt;LA CAFET de la MAISON DE L'ETUDIANT&lt;/h2&gt;&lt;p&gt;&lt;br/&gt;&lt;b&gt;T&amp;#233;l&amp;#233;phone&lt;/b&gt; : 02 31 56 60 90&lt;/p&gt;</contact></resto><resto id="r684" lat="49.1942374260963" lon="-0.362207517027855" title="Oxygene B" type="cafeteria" zone="Campus 1"><contact>&lt;h2&gt;Oxygene B&lt;/h2&gt;&lt;p&gt;&lt;br/&gt;&lt;b&gt;T&amp;#233;l&amp;#233;phone&lt;/b&gt; : 02 31 56 63 64&lt;/p&gt;</contact></resto><resto id="r685" lat="49.2132369181778" lon="-0.366039052605629" title="LE HIGHLAND'S" type="cafeteria" zone="Campus 2"><contact>&lt;h2&gt;LE HIGHLAND'S&lt;/h2&gt;&lt;p&gt;&lt;br/&gt;&lt;b&gt;T&amp;#233;l&amp;#233;phone&lt;/b&gt; : 02 31 56 76 00&lt;/p&gt;</contact></resto><resto id="r686" lat="49.2106265087586" lon="-0.369932949542999" title="LA CAFETERIA DE SCIENCES 1" type="cafeteria" zone="Campus 2"><contact>&lt;h2&gt;LA CAFETERIA DE SCIENCES 1&lt;/h2&gt;&lt;p&gt;&lt;br/&gt;&lt;b&gt;T&amp;#233;l&amp;#233;phone&lt;/b&gt; : 02 31 56 76 00&lt;/p&gt;</contact></resto><resto id="r687" lat="49.2141378612576" lon="-0.367379486560822" title=" LA CAF&#201;TERIA DE L'ENSI" type="cafeteria" zone="Campus 2"><contact>&lt;h2&gt; LA CAF&#201;TERIA DE L'ENSI&lt;/h2&gt;&lt;p&gt;dans le b&#226;timent &lt;br/&gt;&lt;b&gt;T&amp;#233;l&amp;#233;phone&lt;/b&gt; : 02 31 56 76 00&lt;/p&gt;</contact></resto><resto id="r688" lat="49.2109562782311" lon="-0.357566624879837" title="LA CAFETERIA de l'IAE" type="cafeteria" zone="Campus 4"><contact>&lt;h2&gt;LA CAFETERIA de l'IAE&lt;/h2&gt;&lt;p&gt;&lt;br/&gt;&lt;b&gt;T&amp;#233;l&amp;#233;phone&lt;/b&gt; : 02 31 56 63 50 &lt;br/&gt;&lt;b&gt;E-mail&lt;/b&gt; : ru.campus1@crous-caen.fr&lt;/p&gt;</contact></resto><resto id="r689" lat="49.2000208512714" lon="-0.351919233798981" title="LE MAMBO" type="cafeteria" zone="Lebisey"><contact>&lt;h2&gt;LE MAMBO&lt;/h2&gt;&lt;p&gt;&lt;br/&gt;&lt;b&gt;T&amp;#233;l&amp;#233;phone&lt;/b&gt; : 02 31 46 74 74&lt;br/&gt;&lt;b&gt;E-mail&lt;/b&gt; : lebisey@crous-caen.fr&lt;/p&gt;</contact></resto><resto id="r690" lat="49.6310042920684" lon="-1.64665639400482" title="La Soupape" type="cafeteria" zone="Cherbourg-Octeville"><contact>&lt;h2&gt;La Soupape&lt;/h2&gt;&lt;p&gt;Rue Max-Pol Fouchet - 50130 Cherbourg - Octevilleg-Octeville, France&lt;br/&gt;&lt;b&gt;T&amp;#233;l&amp;#233;phone&lt;/b&gt; : 02 33 01 46 80&lt;/p&gt;</contact></resto><resto id="r691" lat="48.4455959657528" lon="0.056329071521759" title="LA CAFETERIA de l'IUT" type="cafeteria" zone="Alen&#231;on"><contact>&lt;h2&gt;LA CAFETERIA de l'IUT&lt;/h2&gt;&lt;p&gt;Site universitaire Entr&#233;e Nord  - 61250 Damigny&lt;br/&gt;&lt;b&gt;T&amp;#233;l&amp;#233;phone&lt;/b&gt; : 02 33 80 51 61&lt;/p&gt;</contact></resto><resto id="r692" lat="48.4456372430424" lon="0.0593076646327972" title="Maison de l'Etudiant" type="cafeteria" zone="Alen&#231;on"><contact>&lt;h2&gt;Maison de l'Etudiant&lt;/h2&gt;&lt;p&gt;Mont Foulon, P&#244;le Universitaire de Montfoulon, 61250 Damigny&lt;br/&gt;&lt;b&gt;T&amp;#233;l&amp;#233;phone&lt;/b&gt; : 02 33 80 51 55&lt;/p&gt;</contact></resto><resto id="r731" lat="49.210291480349" lon="-0.354706048965454" title="CAFETERIA &#160;POLE SANT&#201;&#160;" type="cafeteria" zone="Campus 5"><contact>&lt;h2&gt;CAFETERIA &#160;POLE SANT&#201;&#160;&lt;/h2&gt;&lt;p&gt;2 rue des Rochambelles, 14000 CAEN&lt;br/&gt;&lt;b&gt;T&amp;#233;l&amp;#233;phone&lt;/b&gt; : 02 31 56 63 50&lt;br/&gt;&lt;b&gt;E-mail&lt;/b&gt; : ru.campus1@crous-caen.fr&lt;/p&gt;</contact></resto><resto id="r732" lat="49.203051" lon="-0.348008" title="BRASSERIE DE L'IRTS" type="resto" zone="Herouville Saint Clair"><contact>&lt;h2&gt;BRASSERIE DE L'IRTS&lt;/h2&gt;&lt;p&gt;Rue Guyon de Guercheville - 14200 H&#233;rouville-St-Clair &lt;br/&gt;&lt;b&gt;T&amp;#233;l&amp;#233;phone&lt;/b&gt; : 02 31 54 42 55&lt;/p&gt;</contact></resto><resto id="r733" lat="48.447784" lon="0.07332" title="CAF&#201;T&#201;RIA DE LA MDE" type="cafeteria" zone="Alen&#231;on"><contact>&lt;h2&gt;CAF&#201;T&#201;RIA DE LA MDE&lt;/h2&gt;&lt;p&gt;Site universitaire Entr&#233;e Nord - 61250 Damigny&lt;br/&gt;&lt;b&gt;E-mail&lt;/b&gt; : ru.alencon@crous-caen.fr&lt;/p&gt;</contact></resto><resto id="r526" lat="45.764365" lon="3.086747" title="KIOSQUE LA RONDE DES SAVEURS" type="resto" zone="Clermont-Ferrand"><contact>&lt;h2&gt;KIOSQUE LA RONDE DES SAVEURS&lt;/h2&gt;&lt;p&gt;25 rue Etienne Dolet 63037 Clermont-Ferrand&lt;br/&gt;&lt;b&gt;T&amp;#233;l&amp;#233;phone&lt;/b&gt; : T&#195;&#131;&#194;&#131;&#195;&#130;&#194;&#131;&#195;&#131;&#194;&#130;&#195;&#130;&#194;&lt;br/&gt;&lt;b&gt;E-mail&lt;/b&gt; : restoclos@crous-clermont.fr&lt;/p&gt;</contact></resto><resto id="r530" lat="45.764365" lon="3.086747" title="RU LE CLOS SAINT-JACQUES" type="resto" zone="Clermont-Ferrand"><contact>&lt;h2&gt;RU LE CLOS SAINT-JACQUES&lt;/h2&gt;&lt;p&gt;25 rue Etienne-Dolet 63037 Clermont-Ferand Cedex 1&lt;br/&gt;&lt;b&gt;T&amp;#233;l&amp;#233;phone&lt;/b&gt; : 04 73 34 44 28&lt;br/&gt;&lt;b&gt;E-mail&lt;/b&gt; : restoclos@crous-clermont.fr&lt;/p&gt;</contact></resto><resto id="r531" lat="45.77104" lon="3.094343" title="RU LE CRAT&#200;RE" type="resto" zone="Clermont-Ferrand"><contact>&lt;h2&gt;RU LE CRAT&#200;RE&lt;/h2&gt;&lt;p&gt;26 avenue L&#233;on-Blum 63000 Clermont-Ferrand&lt;br/&gt;&lt;b&gt;T&amp;#233;l&amp;#233;phone&lt;/b&gt; :  04 73 34 44 28&lt;br/&gt;&lt;b&gt;E-mail&lt;/b&gt; : restoclos@crous-clermont.fr&lt;/p&gt;</contact></resto><resto id="r532" lat="45.774468" lon="3.092283" title="RU LE MAN&#200;GE" type="resto" zone="Clermont-Ferrand"><contact>&lt;h2&gt;RU LE MAN&#200;GE&lt;/h2&gt;&lt;p&gt;11 rue d'Amboise 63000 Clermont-Ferrand&lt;br/&gt;&lt;b&gt;T&amp;#233;l&amp;#233;phone&lt;/b&gt; : 04 73 43 72 59&lt;br/&gt;&lt;b&gt;E-mail&lt;/b&gt; : restoclos@crous-clermont.fr&lt;/p&gt;</contact></resto><resto id="r533" lat="45.77125" lon="3.092884" title="RU PHILIPPE-LEBON" type="resto" zone="Clermont-Ferrand"><contact>&lt;h2&gt;RU PHILIPPE-LEBON&lt;/h2&gt;&lt;p&gt;28 boulevard C&#244;te-Blatin 63000 Clermont-Ferrand&lt;br/&gt;&lt;b&gt;T&amp;#233;l&amp;#233;phone&lt;/b&gt; :  04 73 43 72 72&lt;br/&gt;&lt;b&gt;E-mail&lt;/b&gt; : restoclos@crous-clermont.fr&lt;/p&gt;</contact></resto><resto id="r534" lat="45.76435" lon="3.086726" title="BRASSERIE LA TERRASSE" type="resto" zone="Clermont-Ferrand"><contact>&lt;h2&gt;BRASSERIE LA TERRASSE&lt;/h2&gt;&lt;p&gt;25 rue Etienne-Dolet 63037 Clermont-Ferrand Cedex 1&lt;br/&gt;&lt;b&gt;T&amp;#233;l&amp;#233;phone&lt;/b&gt; :  04 73 34 44 28&lt;br/&gt;&lt;b&gt;E-mail&lt;/b&gt; : restoclos@crous-clermont.fr&lt;/p&gt;</contact></resto><resto id="r535" lat="45.7870484" lon="3.1119832" title="Kiosque Odontologie" type="resto" zone="Clermont-Ferrand"><contact>&lt;h2&gt;Kiosque Odontologie&lt;/h2&gt;&lt;p&gt; rue de Braga 63000 Clermont-Ferrand&lt;br/&gt;&lt;b&gt;T&amp;#233;l&amp;#233;phone&lt;/b&gt; :  04 73 93 69 44&lt;br/&gt;&lt;b&gt;E-mail&lt;/b&gt; : restoclos@crous-clermont.fr&lt;/p&gt;</contact></resto><resto id="r536" lat="45.760577" lon="3.088659" title="CAF&#201;T&#201;RIA LE DUNANT" type="resto" zone="Clermont-Ferrand"><contact>&lt;h2&gt;CAF&#201;T&#201;RIA LE DUNANT&lt;/h2&gt;&lt;p&gt;Facult&#233;s de M&#233;decine et de Pharmacie - CHU Gabriel-Montpied - 28 place Henri-Dunant 63000 Clermont-Ferrand&lt;br/&gt;&lt;b&gt;T&amp;#233;l&amp;#233;phone&lt;/b&gt; :  04 73 17 79 23&lt;br/&gt;&lt;b&gt;E-mail&lt;/b&gt; : restoclos@crous-clermont.fr&lt;/p&gt;</contact></resto><resto id="r537" lat="45.77125" lon="3.092863" title="Caf&#233;t&#233;ria Chez Lily" type="cafeteria" zone="Clermont-Ferrand"><contact>&lt;h2&gt;Caf&#233;t&#233;ria Chez Lily&lt;/h2&gt;&lt;p&gt;R&#233;sidence universitaire Philippe-Lebon - 28 boulevard C&#244;te-Blatin 63000 Clermont-Ferrand&lt;br/&gt;&lt;b&gt;T&amp;#233;l&amp;#233;phone&lt;/b&gt; :  04 73 43 72 60&lt;br/&gt;&lt;b&gt;E-mail&lt;/b&gt; : restoclos@crous-clermont.fr&lt;/p&gt;</contact></resto><resto id="r538" lat="45.771916" lon="3.091577" title="RU REST'OC&#201;ZO" type="resto" zone="Les Cezeaux"><contact>&lt;h2&gt;RU REST'OC&#201;ZO&lt;/h2&gt;&lt;p&gt;Campus des C&#233;zeaux 63170 Aubi&#232;re&lt;br/&gt;&lt;b&gt;T&amp;#233;l&amp;#233;phone&lt;/b&gt; :  04 73 28 89 50&lt;br/&gt;&lt;b&gt;E-mail&lt;/b&gt; : restocezeaux@crous-clermont.fr&lt;/p&gt;</contact></resto><resto id="r539" lat="45.771916" lon="3.091577" title="RU PLAT'OC&#201;ZO" type="resto" zone="Les Cezeaux"><contact>&lt;h2&gt;RU PLAT'OC&#201;ZO&lt;/h2&gt;&lt;p&gt;Campus des C&#233;zeaux 63170 Aubi&#232;re&lt;br/&gt;&lt;b&gt;T&amp;#233;l&amp;#233;phone&lt;/b&gt; :  04 73 28 89 50&lt;br/&gt;&lt;b&gt;E-mail&lt;/b&gt; : restocezeaux@crous-clermont.fr&lt;/p&gt;</contact></resto><resto id="r540" lat="45.771916" lon="3.091577" title="RU RAPID'OC&#201;ZO" type="resto" zone="Les Cezeaux"><contact>&lt;h2&gt;RU RAPID'OC&#201;ZO&lt;/h2&gt;&lt;p&gt;Campus des C&#233;zeaux 63170 Aubi&#232;re&lt;br/&gt;&lt;b&gt;T&amp;#233;l&amp;#233;phone&lt;/b&gt; : 04 73 28 89 50&lt;br/&gt;&lt;b&gt;E-mail&lt;/b&gt; : restocezeaux@crous-clermont.fr&lt;/p&gt;</contact></resto><resto id="r541" lat="45.771916" lon="3.091577" title="BRASSERIE LA V&#201;RANDA" type="resto" zone="Les Cezeaux"><contact>&lt;h2&gt;BRASSERIE LA V&#201;RANDA&lt;/h2&gt;&lt;p&gt;Restaurant universitaire - Campus des C&#233;zeaux 63170 Aubi&#232;re&lt;br/&gt;&lt;b&gt;T&amp;#233;l&amp;#233;phone&lt;/b&gt; : 04 73 28 89 60&lt;br/&gt;&lt;b&gt;E-mail&lt;/b&gt; : restocezeaux@crous-clermont.fr&lt;/p&gt;</contact></resto><resto id="r542" lat="45.761605" lon="3.109956" title="BRASSERIE LE SAXO" type="resto" zone="Les Cezeaux"><contact>&lt;h2&gt;BRASSERIE LE SAXO&lt;/h2&gt;&lt;p&gt;Maison de la Vie Etudiante (MVE) - Campus universitaire des C&#233;zeaux 63170 Aubi&#232;re&lt;br/&gt;&lt;b&gt;T&amp;#233;l&amp;#233;phone&lt;/b&gt; : 04 73 28 89 50&lt;br/&gt;&lt;b&gt;E-mail&lt;/b&gt; : restocezeaux@crous-clermont.fr&lt;/p&gt;</contact></resto><resto id="r543" lat="45.762017" lon="3.10871" title="CAF&#201;T&#201;RIA DE L'IUT" type="resto" zone="Les Cezeaux"><contact>&lt;h2&gt;CAF&#201;T&#201;RIA DE L'IUT&lt;/h2&gt;&lt;p&gt;IUT de Clermont-Ferrand - Campus des C&#233;zeaux 63170 Aubi&#232;re&lt;br/&gt;&lt;b&gt;T&amp;#233;l&amp;#233;phone&lt;/b&gt; :  04 73 28 89 60&lt;br/&gt;&lt;b&gt;E-mail&lt;/b&gt; : restocezeaux@crous-clermont.fr&lt;/p&gt;</contact></resto><resto id="r544" lat="45.760008" lon="3.113475" title="LE NOTA BENE" type="resto" zone="Les Cezeaux"><contact>&lt;h2&gt;LE NOTA BENE&lt;/h2&gt;&lt;p&gt;Campus des C&#233;zeaux 63170 Aubi&#232;re&lt;br/&gt;&lt;b&gt;T&amp;#233;l&amp;#233;phone&lt;/b&gt; : 04 73 28 89 50&lt;br/&gt;&lt;b&gt;E-mail&lt;/b&gt; : restocezeaux@crous-clermont.fr&lt;/p&gt;</contact></resto><resto id="r545" lat="45.762613" lon="3.113119" title="LES HAUTS DE L'ARTI&#200;RE" type="resto" zone="Les Cezeaux"><contact>&lt;h2&gt;LES HAUTS DE L'ARTI&#200;RE&lt;/h2&gt;&lt;p&gt;Restaurant universitaire Rest'Oc&#233;zo - Campus des C&#233;zeaux 63170 Aubi&#232;re&lt;br/&gt;&lt;b&gt;T&amp;#233;l&amp;#233;phone&lt;/b&gt; :  04 73 28 89 68 &lt;br/&gt;&lt;b&gt;E-mail&lt;/b&gt; : restocezeaux@crous-clermont.fr&lt;/p&gt;</contact></resto><resto id="r546" lat="46.329254" lon="2.588114" title="RU MONTLU&#199;ON" type="resto" zone="Montlucon"><contact>&lt;h2&gt;RU MONTLU&#199;ON&lt;/h2&gt;&lt;p&gt;All&#233;e Jean-Jacques-Soulier 03100 Montlu&#231;on&lt;br/&gt;&lt;b&gt;T&amp;#233;l&amp;#233;phone&lt;/b&gt; :  04 70 08 35 40&lt;br/&gt;&lt;b&gt;E-mail&lt;/b&gt; : resid-montlucon@crous-clermont.fr&lt;/p&gt;</contact></resto><resto id="r547" lat="46.329235" lon="2.588043" title="CAF&#201;T&#201;RIA DE MONTLU&#199;ON" type="cafeteria" zone="Montlucon"><contact>&lt;h2&gt;CAF&#201;T&#201;RIA DE MONTLU&#199;ON&lt;/h2&gt;&lt;p&gt;All&#233;e Jean-Jacques-Soulier 03100 Montlu&#231;on&lt;br/&gt;&lt;b&gt;T&amp;#233;l&amp;#233;phone&lt;/b&gt; : 04 70 08 35 40&lt;br/&gt;&lt;b&gt;E-mail&lt;/b&gt; : resid-montlucon@crous-clermont.fr&lt;/p&gt;</contact></resto><resto id="r548" lat="46.328417" lon="2.588363" title="SANDWICHERIE DE L'IUT DE MONTLU&#199;ON" type="resto" zone="Montlucon"><contact>&lt;h2&gt;SANDWICHERIE DE L'IUT DE MONTLU&#199;ON&lt;/h2&gt;&lt;p&gt;IUT  03100 Montlu&#231;on&lt;br/&gt;&lt;b&gt;T&amp;#233;l&amp;#233;phone&lt;/b&gt; : 04 70 08 35 40&lt;br/&gt;&lt;b&gt;E-mail&lt;/b&gt; : resid-montlucon@crous-clermont.fr&lt;/p&gt;</contact></resto><resto id="r549" lat="44.933539" lon="2.441853" title="RU D'AURILLAC" type="resto" zone="Aurillac"><contact>&lt;h2&gt;RU D'AURILLAC&lt;/h2&gt;&lt;p&gt;25 rue de l'&#201;cole Normale 15000 Aurillac&lt;br/&gt;&lt;b&gt;T&amp;#233;l&amp;#233;phone&lt;/b&gt; : 04 71 48 34 05&lt;br/&gt;&lt;b&gt;E-mail&lt;/b&gt; : resto-aurillac@crous-clermont.fr&lt;/p&gt;</contact></resto><resto id="r396" lat="43.316514" lon="-0.368496" title="Restauration" type="resto" zone="FRANCE"><contact>CNOUS</contact></resto><resto id="r500" lat="42.305023" lon="9.154909" title=" RU Campus Mariani" type="resto" zone="Corte"><contact>&lt;h2&gt; RU Campus Mariani&lt;/h2&gt;&lt;p&gt;Campus Mariani&lt;br/&gt;&lt;b&gt;T&amp;#233;l&amp;#233;phone&lt;/b&gt; : Service restaura&lt;/p&gt;</contact></resto><resto id="r809" lat="42.2983554" lon="9.1530854" title="Snaking Mariani" type="cafeteria" zone="Corte"><contact>&lt;h2&gt;Snaking Mariani&lt;/h2&gt;&lt;p&gt;&lt;/p&gt;</contact></resto><resto id="r502" lat="42.2993554" lon="9.1520854" title="RU Campus Grimaldi" type="resto" zone="Corte"><contact>&lt;h2&gt;RU Campus Grimaldi&lt;/h2&gt;&lt;p&gt;Campus Grossetti&lt;br/&gt;&lt;b&gt;T&amp;#233;l&amp;#233;phone&lt;/b&gt; : Service restaura&lt;/p&gt;</contact></resto><resto id="r503" lat="42.305055" lon="9.154866" title="CafxE9;taria I.U.T" type="resto" zone="Corte"><contact>&lt;h2&gt;Caf&#233;taria I.U.T&lt;/h2&gt;&lt;p&gt;&lt;br/&gt;&lt;b&gt;T&amp;#233;l&amp;#233;phone&lt;/b&gt; : Service restaura&lt;/p&gt;</contact></resto><resto id="r360" lat="48.956298" lon="2.338672" title="Forum Express" type="cafeteria" zone="Villetaneuse"><contact>&lt;h2&gt;Forum Express&lt;/h2&gt;&lt;p&gt;Avenue J.B. Cl&#233;ment - 93430 Villetaneuse&lt;br/&gt;&lt;b&gt;T&amp;#233;l&amp;#233;phone&lt;/b&gt; : 01 48 22 09 52&lt;br/&gt;&lt;b&gt;E-mail&lt;/b&gt; : restaurant.villetaneuse@crous-creteil.fr&lt;/p&gt;</contact></resto><resto id="r298" lat="48.840486" lon="2.586272" title="RU Arlequin MLV" type="resto" zone="Marne la Vallee"><contact>&lt;h2&gt;RU Arlequin MLV&lt;/h2&gt;&lt;p&gt;5 bd Descartes - 77420 Champs-sur-Marne&lt;br/&gt;&lt;b&gt;E-mail&lt;/b&gt; : restaurant.champs-sur-marne@crous-creteil.fr&lt;/p&gt;</contact></resto><resto id="r299" lat="48.839201" lon="2.587259" title="Bar L'Arlequin MLV" type="cafeteria" zone="Marne la Vallee"><contact>&lt;h2&gt;Bar L'Arlequin MLV&lt;/h2&gt;&lt;p&gt;hall Copernic de l'universit&#233; - 5 boulevard Descartes 77420 Champs-sur-Marne&lt;br/&gt;&lt;b&gt;T&amp;#233;l&amp;#233;phone&lt;/b&gt; : 0164681125&lt;br/&gt;&lt;b&gt;E-mail&lt;/b&gt; : restaurant.champs-sur-marne@crous-creteil.fr&lt;/p&gt;</contact></resto><resto id="r300" lat="48.8426682" lon="2.5860961" title="RU Crous Club " type="resto" zone="Marne la Vallee"><contact>&lt;h2&gt;RU Crous Club &lt;/h2&gt;&lt;p&gt;10 boulevard Newton - 77420 Champs-sur-Marne&lt;br/&gt;&lt;b&gt;E-mail&lt;/b&gt; : restaurant.champs-sur-marne@crous-creteil.fr&lt;/p&gt;</contact></resto><resto id="r301" lat="48.836786" lon="2.585778" title="Caf&#233;t&#233;ria IUT Champs" type="cafeteria" zone="Marne la Vallee"><contact>&lt;h2&gt;Caf&#233;t&#233;ria IUT Champs&lt;/h2&gt;&lt;p&gt;2 rue Albert Einstein - 77420 Champs-sur-Marne&lt;br/&gt;&lt;b&gt;E-mail&lt;/b&gt; : restaurant.champs-sur-marne@crous-creteil.fr&lt;/p&gt;</contact></resto><resto id="r302" lat="48.837097" lon="2.585585" title="Caf&#233;t&#233;ria Lavoisier Express" type="cafeteria" zone="Marne la Vallee"><contact>&lt;h2&gt;Caf&#233;t&#233;ria Lavoisier Express&lt;/h2&gt;&lt;p&gt;B&#226;t LAVOISIER du site dit du Bois de l'Etang - Rue Galil&#233;e - 77420 Champs-sur-Marne&lt;br/&gt;&lt;b&gt;E-mail&lt;/b&gt; : restaurant.champs-sur-marne@crous-creteil.fr&lt;/p&gt;</contact></resto><resto id="r303" lat="48.855652" lon="2.777524" title="Caf&#233;t&#233;ria Val d'Europe" type="cafeteria" zone="Marne la Vallee"><contact>&lt;h2&gt;Caf&#233;t&#233;ria Val d'Europe&lt;/h2&gt;&lt;p&gt;6 cours du Danube - 77700 Serris&lt;br/&gt;&lt;b&gt;E-mail&lt;/b&gt; : restaurant.champs-sur-marne@crous-creteil.fr&lt;/p&gt;</contact></resto><resto id="r306" lat="48.955396" lon="2.877882" title="IUT Meaux" type="cafeteria" zone="Marne la Vallee"><contact>&lt;h2&gt;IUT Meaux&lt;/h2&gt;&lt;p&gt;7 rue Jablinot - 77100 Meaux&lt;br/&gt;&lt;b&gt;E-mail&lt;/b&gt; : restaurant.champs-sur-marne@crous-creteil.fr&lt;/p&gt;</contact></resto><resto id="r307" lat="48.956298" lon="2.338672" title="RU Les Vergers" type="resto" zone="Villetaneuse"><contact>&lt;h2&gt;RU Les Vergers&lt;/h2&gt;&lt;p&gt;Avenue J.B. Cl&#233;ment - 93430 Villetaneuse&lt;br/&gt;&lt;b&gt;T&amp;#233;l&amp;#233;phone&lt;/b&gt; :  01 48 22 09 52&lt;br/&gt;&lt;b&gt;E-mail&lt;/b&gt; : restaurant.villetaneuse@crous-creteil.fr&lt;/p&gt;</contact></resto><resto id="r308" lat="48.956298" lon="2.338672" title="Caf&#233;t&#233;ria Les Vergers-Rapid'U" type="cafeteria" zone="Villetaneuse"><contact>&lt;h2&gt;Caf&#233;t&#233;ria Les Vergers-Rapid'U&lt;/h2&gt;&lt;p&gt;Avenue J.B. Cl&#233;ment - 93430 Villetaneuse&lt;br/&gt;&lt;b&gt;T&amp;#233;l&amp;#233;phone&lt;/b&gt; : 01 48 22 09 52&lt;br/&gt;&lt;b&gt;E-mail&lt;/b&gt; : restaurant.villetaneuse@crous-creteil.fr&lt;/p&gt;</contact></resto><resto id="r309" lat="48.956298" lon="2.338672" title="Caf&#233;t&#233;ria Caf&#233; expo" type="cafeteria" zone="Villetaneuse"><contact>&lt;h2&gt;Caf&#233;t&#233;ria Caf&#233; expo&lt;/h2&gt;&lt;p&gt;Avenue J.B. Cl&#233;ment - 93430 Villetaneuse&lt;br/&gt;&lt;b&gt;T&amp;#233;l&amp;#233;phone&lt;/b&gt; : 01 48 22 09 52&lt;br/&gt;&lt;b&gt;E-mail&lt;/b&gt; : restaurant.villetaneuse@crous-creteil.fr&lt;/p&gt;</contact></resto><resto id="r310" lat="48.9559156" lon="2.3388116" title="Caf&#233;t&#233;ria Galil&#233;e" type="resto" zone="Villetaneuse"><contact>&lt;h2&gt;Caf&#233;t&#233;ria Galil&#233;e&lt;/h2&gt;&lt;p&gt;Avenue J.B. Cl&#233;ment - 93430 Villetaneuse&lt;br/&gt;&lt;b&gt;T&amp;#233;l&amp;#233;phone&lt;/b&gt; :  01 48 22 09 52&lt;br/&gt;&lt;b&gt;E-mail&lt;/b&gt; : restaurant.villetaneuse@crous-creteil.fr&lt;/p&gt;</contact></resto><resto id="r311" lat="48.862767" lon="2.464435" title="RU de Montreuil" type="resto" zone="Villetaneuse"><contact>&lt;h2&gt;RU de Montreuil&lt;/h2&gt;&lt;p&gt;140, rue de la Nouvelle France - 93100 Montreuil&lt;br/&gt;&lt;b&gt;T&amp;#233;l&amp;#233;phone&lt;/b&gt; : 01 48 22 09 52&lt;br/&gt;&lt;b&gt;E-mail&lt;/b&gt; : restaurant.villetaneuse@crous-creteil.fr&lt;/p&gt;</contact></resto><resto id="r312" lat="48.975499" lon="2.559922" title="RU de Tremblay" type="resto" zone="Villetaneuse"><contact>&lt;h2&gt;RU de Tremblay&lt;/h2&gt;&lt;p&gt;3 rue de la r&#226;perie - 93290 Tremblay-en-France&lt;br/&gt;&lt;b&gt;T&amp;#233;l&amp;#233;phone&lt;/b&gt; :  01 48 22 09 52&lt;br/&gt;&lt;b&gt;E-mail&lt;/b&gt; : restaurant.villetaneuse@crous-creteil.fr&lt;/p&gt;</contact></resto><resto id="r313" lat="48.94012" lon="2.355881" title="RU L'All&#233;e Verte" type="resto" zone="St Denis Paris 08"><contact>&lt;h2&gt;RU L'All&#233;e Verte&lt;/h2&gt;&lt;p&gt;Place du 8 mai 1945 - 93200 Saint-Denis&lt;br/&gt;&lt;b&gt;T&amp;#233;l&amp;#233;phone&lt;/b&gt; : 01 48 29 14 76&lt;br/&gt;&lt;b&gt;E-mail&lt;/b&gt; : restaurant.saint-denis@crous-creteil.fr&lt;/p&gt;</contact></resto><resto id="r314" lat="48.94012" lon="2.355881" title="Caf&#233;t&#233;ria de L'IUT de Saint-Denis" type="cafeteria" zone="St Denis Paris 08"><contact>&lt;h2&gt;Caf&#233;t&#233;ria de L'IUT de Saint-Denis&lt;/h2&gt;&lt;p&gt;Place du 8 mai 1945 - 93200 Saint-Denis&lt;br/&gt;&lt;b&gt;T&amp;#233;l&amp;#233;phone&lt;/b&gt; : 01 48 29 14 76&lt;br/&gt;&lt;b&gt;E-mail&lt;/b&gt; : restaurant.saint-denis@crous-creteil.fr&lt;/p&gt;</contact></resto><resto id="r315" lat="48.945518" lon="2.363906" title="RU Campus St Denis " type="resto" zone="St Denis Paris 08"><contact>&lt;h2&gt;RU Campus St Denis &lt;/h2&gt;&lt;p&gt;2 rue de la Libert&#233; - 93200 Saint-Denis&lt;br/&gt;&lt;b&gt;T&amp;#233;l&amp;#233;phone&lt;/b&gt; : 01 49 40 67 27&lt;br/&gt;&lt;b&gt;E-mail&lt;/b&gt; : restaurant.paris8@crous-creteil.fr&lt;/p&gt;</contact></resto><resto id="r316" lat="48.945518" lon="2.363906" title="Brasserie/Caf&#233;t&#233;ria Campus St Denis" type="cafeteria" zone="St Denis Paris 08"><contact>&lt;h2&gt;Brasserie/Caf&#233;t&#233;ria Campus St Denis&lt;/h2&gt;&lt;p&gt;2 rue de la Libert&#233; - 93200 Saint-Denis&lt;br/&gt;&lt;b&gt;T&amp;#233;l&amp;#233;phone&lt;/b&gt; :  01 49 40 67 27&lt;br/&gt;&lt;b&gt;E-mail&lt;/b&gt; : restaurant.paris8@crous-creteil.fr&lt;/p&gt;</contact></resto><resto id="r317" lat="48.945518" lon="2.363906" title="La grande Caf&#233;t&#233;ria - B&#226;timent C Campus St Denis" type="resto" zone="St Denis Paris 08"><contact>&lt;h2&gt;La grande Caf&#233;t&#233;ria - B&#226;timent C Campus St Denis&lt;/h2&gt;&lt;p&gt;2 rue de la Libert&#233; - 93200 Saint-Denis&lt;br/&gt;&lt;b&gt;T&amp;#233;l&amp;#233;phone&lt;/b&gt; : 01 49 40 67 27&lt;br/&gt;&lt;b&gt;E-mail&lt;/b&gt; : restaurant.paris8@crous-creteil.fr&lt;/p&gt;</contact></resto><resto id="r318" lat="48.945518" lon="2.363906" title="La Caf&#233;t&#233;ria du Gai Savoir - B&#226;timent A  Campus de St Denis" type="cafeteria" zone="St Denis Paris 08"><contact>&lt;h2&gt;La Caf&#233;t&#233;ria du Gai Savoir - B&#226;timent A  Campus de St Denis&lt;/h2&gt;&lt;p&gt;2 rue de la Libert&#233; - 93200 Saint-Denis&lt;br/&gt;&lt;b&gt;T&amp;#233;l&amp;#233;phone&lt;/b&gt; : 01 49 40 67 27&lt;br/&gt;&lt;b&gt;E-mail&lt;/b&gt; : restaurant.paris8@crous-creteil.fr&lt;/p&gt;</contact></resto><resto id="r319" lat="48.788488" lon="2.44596" title="RU La Pointe Jaune" type="resto" zone="Creteil"><contact>&lt;h2&gt;RU La Pointe Jaune&lt;/h2&gt;&lt;p&gt;61 av. du G&#233;n&#233;ral de Gaulle - 94000 Cr&#233;teil&lt;br/&gt;&lt;b&gt;T&amp;#233;l&amp;#233;phone&lt;/b&gt; : 01 48 99 29 40&lt;br/&gt;&lt;b&gt;E-mail&lt;/b&gt; : restaurant.creteil@crous-creteil.fr&lt;/p&gt;</contact></resto><resto id="r320" lat="48.788488" lon="2.44596" title="La Grande Caf&#233;t&#233;ria " type="cafeteria" zone="Creteil"><contact>&lt;h2&gt;La Grande Caf&#233;t&#233;ria &lt;/h2&gt;&lt;p&gt;61 av. du G&#233;n&#233;ral de Gaulle - 94000 Cr&#233;teil&lt;br/&gt;&lt;b&gt;T&amp;#233;l&amp;#233;phone&lt;/b&gt; : 01 48 99 29 40&lt;br/&gt;&lt;b&gt;E-mail&lt;/b&gt; : restaurant.creteil@crous-creteil.fr&lt;/p&gt;</contact></resto><resto id="r322" lat="48.788488" lon="2.44596" title="Comptoir de l'Archipel" type="resto" zone="Creteil"><contact>&lt;h2&gt;Comptoir de l'Archipel&lt;/h2&gt;&lt;p&gt;61 av. du G&#233;n&#233;ral de Gaulle - 94000 Cr&#233;teil&lt;br/&gt;&lt;b&gt;T&amp;#233;l&amp;#233;phone&lt;/b&gt; :  01 48 99 29 40&lt;br/&gt;&lt;b&gt;E-mail&lt;/b&gt; : restaurant.creteil@crous-creteil.fr&lt;/p&gt;</contact></resto><resto id="r323" lat="48.794822" lon="2.455487" title="RU Le Mondor" type="resto" zone="Creteil"><contact>&lt;h2&gt;RU Le Mondor&lt;/h2&gt;&lt;p&gt;8 rue du G&#233;n&#233;ral Sarrail 94000 Cr&#233;teil&lt;br/&gt;&lt;b&gt;T&amp;#233;l&amp;#233;phone&lt;/b&gt; : 01 48 99 29 40&lt;br/&gt;&lt;b&gt;E-mail&lt;/b&gt; : restaurant.creteil@crous-creteil.fr&lt;/p&gt;</contact></resto><resto id="r325" lat="48.788446" lon="2.450938" title="Brasserie du Mail des M&#232;ches " type="resto" zone="Creteil"><contact>&lt;h2&gt;Brasserie du Mail des M&#232;ches &lt;/h2&gt;&lt;p&gt;4 route de Choisy 94000 Cr&#233;teil&lt;br/&gt;&lt;b&gt;T&amp;#233;l&amp;#233;phone&lt;/b&gt; : 01 41 78 46 91&lt;br/&gt;&lt;b&gt;E-mail&lt;/b&gt; : restaurant.creteil@crous-creteil.fr&lt;/p&gt;</contact></resto><resto id="r326" lat="48.794765" lon="2.44478" title="RU L'Agora Cr&#233;teil" type="resto" zone="Creteil"><contact>&lt;h2&gt;RU L'Agora Cr&#233;teil&lt;/h2&gt;&lt;p&gt;5 rue Andr&#233; Boulle 94000 Cr&#233;teil&lt;br/&gt;&lt;b&gt;T&amp;#233;l&amp;#233;phone&lt;/b&gt; : 01 56 72 62 03&lt;br/&gt;&lt;b&gt;E-mail&lt;/b&gt; : restaurant.creteil@crous-creteil.fr&lt;/p&gt;</contact></resto><resto id="r327" lat="48.7944844" lon="2.4448736" title="Caf&#233;t&#233;ria de L'Agora" type="cafeteria" zone="Creteil"><contact>&lt;h2&gt;Caf&#233;t&#233;ria de L'Agora&lt;/h2&gt;&lt;p&gt;5 rue Andr&#233; Boulle 94000 Cr&#233;teil&lt;br/&gt;&lt;b&gt;T&amp;#233;l&amp;#233;phone&lt;/b&gt; : 01 56 72 62 02&lt;br/&gt;&lt;b&gt;E-mail&lt;/b&gt; : restaurant.creteil@crous-creteil.fr&lt;/p&gt;</contact></resto><resto id="r328" lat="48.769343" lon="2.455637" title="Caf&#233;t&#233;ria STAPS " type="cafeteria" zone="Creteil"><contact>&lt;h2&gt;Caf&#233;t&#233;ria STAPS &lt;/h2&gt;&lt;p&gt;27 avenue Magellan - 94000 Cr&#233;teil&lt;br/&gt;&lt;b&gt;T&amp;#233;l&amp;#233;phone&lt;/b&gt; : 01 48 99 29 40&lt;br/&gt;&lt;b&gt;E-mail&lt;/b&gt; : restaurant.creteil@crous-creteil.fr&lt;/p&gt;</contact></resto><resto id="r329" lat="48.791641" lon="2.33217" title="RU L'Arlequin Cachan" type="resto" zone="Cachan"><contact>&lt;h2&gt;RU L'Arlequin Cachan&lt;/h2&gt;&lt;p&gt;60 rue Camille Desmoulins - 94234 Cachan Cedex&lt;br/&gt;&lt;b&gt;T&amp;#233;l&amp;#233;phone&lt;/b&gt; : 01 41 98 39 80&lt;br/&gt;&lt;b&gt;E-mail&lt;/b&gt; : restaurant.cachan@crous-creteil.fr&lt;/p&gt;</contact></resto><resto id="r330" lat="48.791528" lon="2.332124" title="RU L'Encyclop&#233;die (VIP)" type="resto" zone="Cachan"><contact>&lt;h2&gt;RU L'Encyclop&#233;die (VIP)&lt;/h2&gt;&lt;p&gt;60 rue Camille Desmoulins - 94234 Cachan Cedex&lt;br/&gt;&lt;b&gt;T&amp;#233;l&amp;#233;phone&lt;/b&gt; : 01 41 98 39 80&lt;br/&gt;&lt;b&gt;E-mail&lt;/b&gt; : restaurant.cachan@crous-creteil.fr&lt;/p&gt;</contact></resto><resto id="r331" lat="48.791627" lon="2.332084" title="Caf&#233;t&#233;ria L'&#233;quinoxe" type="cafeteria" zone="Cachan"><contact>&lt;h2&gt;Caf&#233;t&#233;ria L'&#233;quinoxe&lt;/h2&gt;&lt;p&gt;60 rue Camille Desmoulins - 94234 Cachan Cedex&lt;br/&gt;&lt;b&gt;T&amp;#233;l&amp;#233;phone&lt;/b&gt; :  01 41 98 39 80&lt;br/&gt;&lt;b&gt;E-mail&lt;/b&gt; : restaurant.cachan@crous-creteil.fr&lt;/p&gt;</contact></resto><resto id="r332" lat="48.793761" lon="2.330432" title="Caf&#233;t&#233;ria de L'ESTP" type="cafeteria" zone="Cachan"><contact>&lt;h2&gt;Caf&#233;t&#233;ria de L'ESTP&lt;/h2&gt;&lt;p&gt;28 avenue du Pr&#233;sident Wilson - 94234 Cachan cedex&lt;br/&gt;&lt;b&gt;T&amp;#233;l&amp;#233;phone&lt;/b&gt; : 01 41 98 39 80&lt;br/&gt;&lt;b&gt;E-mail&lt;/b&gt; : restaurant.cachan@crous-creteil.fr&lt;/p&gt;</contact></resto><resto id="r333" lat="48.912812" lon="2.420104" title="RU Le Pont de Pierre" type="resto" zone="Bobigny"><contact>&lt;h2&gt;RU Le Pont de Pierre&lt;/h2&gt;&lt;p&gt;74 rue Marcel Cachin - 93000 Bobigny&lt;br/&gt;&lt;b&gt;T&amp;#233;l&amp;#233;phone&lt;/b&gt; : 01 48 36 25 59&lt;br/&gt;&lt;b&gt;E-mail&lt;/b&gt; : restaurant.bobigny@crous-creteil.fr&lt;/p&gt;</contact></resto><resto id="r334" lat="48.912812" lon="2.420104" title="Caf&#233;t&#233;ria Le Pont de Pierre" type="cafeteria" zone="Bobigny"><contact>&lt;h2&gt;Caf&#233;t&#233;ria Le Pont de Pierre&lt;/h2&gt;&lt;p&gt;74 rue Marcel Cachin - 93000 Bobigny&lt;br/&gt;&lt;b&gt;T&amp;#233;l&amp;#233;phone&lt;/b&gt; : 01 48 36 25 59&lt;br/&gt;&lt;b&gt;E-mail&lt;/b&gt; : restaurant.bobigny@crous-creteil.fr&lt;/p&gt;</contact></resto><resto id="r335" lat="48.913179" lon="2.419074" title="Caf&#233;t&#233;ria L'Illustration" type="cafeteria" zone="Bobigny"><contact>&lt;h2&gt;Caf&#233;t&#233;ria L'Illustration&lt;/h2&gt;&lt;p&gt;74 rue Marcel Cachin - 93000 Bobigny&lt;br/&gt;&lt;b&gt;T&amp;#233;l&amp;#233;phone&lt;/b&gt; : 01 48 36 25 59&lt;br/&gt;&lt;b&gt;E-mail&lt;/b&gt; : restaurant.bobigny@crous-creteil.fr&lt;/p&gt;</contact></resto><resto id="r336" lat="48.537665" lon="2.656975" title="RU de Melun" type="resto" zone="Sud Seine-et-Marne"><contact>&lt;h2&gt;RU de Melun&lt;/h2&gt;&lt;p&gt;Rue du Port - 77000 Melun&lt;br/&gt;&lt;b&gt;T&amp;#233;l&amp;#233;phone&lt;/b&gt; : 01 64 37 32 45&lt;br/&gt;&lt;b&gt;E-mail&lt;/b&gt; : restaurant.melun@crous-creteil.fr&lt;/p&gt;</contact></resto><resto id="r337" lat="48.810721" lon="2.34998" title="Les jardins du Fort KB" type="resto" zone="Seine et Bievre"><contact>&lt;h2&gt;Les jardins du Fort KB&lt;/h2&gt;&lt;p&gt;63 rue Gabriel P&#233;ri 94270 Le Kremlin-Bic&#234;tre&lt;br/&gt;&lt;b&gt;T&amp;#233;l&amp;#233;phone&lt;/b&gt; : 01 49 59 67 93&lt;br/&gt;&lt;b&gt;E-mail&lt;/b&gt; : restaurant.kremlin@crous-creteil.fr&lt;/p&gt;</contact></resto><resto id="r338" lat="48.788828" lon="2.363734" title="RU EFREI Villejuif" type="resto" zone="Seine et Bievre"><contact>&lt;h2&gt;RU EFREI Villejuif&lt;/h2&gt;&lt;p&gt;30/32 avenue de la R&#233;publique 94800 Villejuif&lt;br/&gt;&lt;b&gt;T&amp;#233;l&amp;#233;phone&lt;/b&gt; :  01 45 21 80 94&lt;br/&gt;&lt;b&gt;E-mail&lt;/b&gt; : restaurant.kremlin@crous-creteil.fr&lt;/p&gt;</contact></resto><resto id="r339" lat="48.812799" lon="2.422163" title="RU ENVA " type="resto" zone="Seine et Bievre"><contact>&lt;h2&gt;RU ENVA &lt;/h2&gt;&lt;p&gt;7 avenue du G&#233;n&#233;ral de Gaulle - 94700 Maisons-Alfort&lt;br/&gt;&lt;b&gt;T&amp;#233;l&amp;#233;phone&lt;/b&gt; : 01 49 77 83 59&lt;br/&gt;&lt;b&gt;E-mail&lt;/b&gt; : restaurant.kremlin@crous-creteil.fr&lt;/p&gt;</contact></resto><resto id="r340" lat="48.627761" lon="2.563677" title="RU L'Arlequin S&#233;nart" type="resto" zone="Senart"><contact>&lt;h2&gt;RU L'Arlequin S&#233;nart&lt;/h2&gt;&lt;p&gt;Avenue Pierre Point - 77127 Lieusaint&lt;br/&gt;&lt;b&gt;T&amp;#233;l&amp;#233;phone&lt;/b&gt; : 01 60 60 59 51&lt;br/&gt;&lt;b&gt;E-mail&lt;/b&gt; : restaurant.lieusaint@crous-creteil.fr&lt;/p&gt;</contact></resto><resto id="r341" lat="48.627676" lon="2.563784" title="CAMPUS EXPRESS de l'IUT de Lieusaint" type="cafeteria" zone="Senart"><contact>&lt;h2&gt;CAMPUS EXPRESS de l'IUT de Lieusaint&lt;/h2&gt;&lt;p&gt;Avenue Pierre Point - 77127 Lieusaint&lt;br/&gt;&lt;b&gt;T&amp;#233;l&amp;#233;phone&lt;/b&gt; : 01 60 60 59 51&lt;br/&gt;&lt;b&gt;E-mail&lt;/b&gt; : restaurant.lieusaint@crous-creteil.fr&lt;/p&gt;</contact></resto><resto id="r342" lat="48.398223" lon="2.687616" title="RU Le Hurtault" type="resto" zone="Sud Seine-et-Marne"><contact>&lt;h2&gt;RU Le Hurtault&lt;/h2&gt;&lt;p&gt;Route de Hurtault - 77300 Fontainebleau&lt;br/&gt;&lt;b&gt;T&amp;#233;l&amp;#233;phone&lt;/b&gt; : 01 60 74 03 03&lt;br/&gt;&lt;b&gt;E-mail&lt;/b&gt; : restaurant.fontainebleau@crous-creteil.fr&lt;/p&gt;</contact></resto><resto id="r418" lat="48.919567" lon="2.33281" title="Resto 'u Supmeca" type="resto" zone="Villetaneuse"><contact>&lt;h2&gt;Resto 'u Supmeca&lt;/h2&gt;&lt;p&gt;3 rue Fernand Haineut , 93400 SAINT-OUEN&lt;br/&gt;&lt;b&gt;T&amp;#233;l&amp;#233;phone&lt;/b&gt; : 01 48 22 09 52&lt;br/&gt;&lt;b&gt;E-mail&lt;/b&gt; : restaurant.villetaneuse@crous-creteil.fr&lt;/p&gt;</contact></resto><resto id="r115" lat="47.3116535" lon="5.0615023" title="Restaurant Mansart" type="resto" zone="DIJON"><contact>&lt;h2&gt;Restaurant Mansart&lt;/h2&gt;&lt;p&gt;94 boulevard Mansart&lt;br/&gt;&lt;b&gt;T&amp;#233;l&amp;#233;phone&lt;/b&gt; : 0345348601&lt;br/&gt;&lt;b&gt;E-mail&lt;/b&gt; : restaurant.mansart@crous-dijon.fr&lt;/p&gt;</contact></resto><resto id="r116" lat="47.314548" lon="5.070877" title="Restaurant Montmuzard" type="resto" zone="DIJON"><contact>&lt;h2&gt;Restaurant Montmuzard&lt;/h2&gt;&lt;p&gt;8b rue Recteur Marcel Bouchard&lt;br/&gt;&lt;b&gt;T&amp;#233;l&amp;#233;phone&lt;/b&gt; : 0345348585&lt;br/&gt;&lt;b&gt;E-mail&lt;/b&gt; : restaurant.montmuzard@crous-dijon.fr&lt;/p&gt;</contact></resto><resto id="r117" lat="46.8073319" lon="4.4196402" title="Restaurant Le Creusot" type="resto" zone="LE CREUSOT"><contact>&lt;h2&gt;Restaurant Le Creusot&lt;/h2&gt;&lt;p&gt;Avenue Jean Monnet&lt;br/&gt;&lt;b&gt;T&amp;#233;l&amp;#233;phone&lt;/b&gt; : 0345164000&lt;br/&gt;&lt;b&gt;E-mail&lt;/b&gt; : site.lecreusot@crous-dijon.fr&lt;/p&gt;</contact></resto><resto id="r118" lat="47.3116535" lon="5.0615023" title="Cafet Mansart" type="resto" zone="DIJON"><contact>&lt;h2&gt;Cafet Mansart&lt;/h2&gt;&lt;p&gt;94 bd Mansart&lt;br/&gt;&lt;b&gt;T&amp;#233;l&amp;#233;phone&lt;/b&gt; : 0380682767&lt;br/&gt;&lt;b&gt;E-mail&lt;/b&gt; : restaurant.mansart@crous-dijon.fr&lt;/p&gt;</contact></resto><resto id="r119" lat="47.310867" lon="5.07489" title="Cafet STAPS" type="resto" zone="DIJON"><contact>&lt;h2&gt;Cafet STAPS&lt;/h2&gt;&lt;p&gt; Maison des Sports&lt;br/&gt;&lt;b&gt;T&amp;#233;l&amp;#233;phone&lt;/b&gt; : 0380396958&lt;br/&gt;&lt;b&gt;E-mail&lt;/b&gt; : restaurant.maret@crous-dijon.fr&lt;/p&gt;</contact></resto><resto id="r120" lat="47.310955" lon="5.068538" title="Cafet IUT" type="resto" zone="DIJON"><contact>&lt;h2&gt;Cafet IUT&lt;/h2&gt;&lt;p&gt;Boulevard Petitjean&lt;br/&gt;&lt;b&gt;T&amp;#233;l&amp;#233;phone&lt;/b&gt; : 0380396977&lt;br/&gt;&lt;b&gt;E-mail&lt;/b&gt; : restaurant.montmuzard@crous-dijon.fr&lt;/p&gt;</contact></resto><resto id="r121" lat="47.313923" lon="5.068195" title="Cafet Lamartine" type="resto" zone="DIJON"><contact>&lt;h2&gt;Cafet Lamartine&lt;/h2&gt;&lt;p&gt;6 avenue Alain Savary&lt;br/&gt;&lt;b&gt;E-mail&lt;/b&gt; : restaurant.montmuzard@crous-dijon.fr&lt;/p&gt;</contact></resto><resto id="r122" lat="47.315661" lon="5.068066" title="Cafet AGROSUP" type="resto" zone="DIJON"><contact>&lt;h2&gt;Cafet AGROSUP&lt;/h2&gt;&lt;p&gt;Rue Claude Ladrey&lt;br/&gt;&lt;b&gt;T&amp;#233;l&amp;#233;phone&lt;/b&gt; : 0380396614&lt;br/&gt;&lt;b&gt;E-mail&lt;/b&gt; : restaurant.montmuzard@crous-dijon.fr&lt;/p&gt;</contact></resto><resto id="r123" lat="47.316032" lon="5.065684" title="Cafet Gabriel" type="resto" zone="DIJON"><contact>&lt;h2&gt;Cafet Gabriel&lt;/h2&gt;&lt;p&gt;UFRSciences Gabriel - 4&#232;me &#233;tage&lt;br/&gt;&lt;b&gt;T&amp;#233;l&amp;#233;phone&lt;/b&gt; : 0380396994&lt;br/&gt;&lt;b&gt;E-mail&lt;/b&gt; : restaurant.maret@crous-dijon.fr&lt;/p&gt;</contact></resto><resto id="r372" lat="47.3147427" lon="5.0640388" title="Cafet Droit Lettres" type="resto" zone="DIJON"><contact>&lt;h2&gt;Cafet Droit Lettres&lt;/h2&gt;&lt;p&gt;Boulevard Gabriel&lt;br/&gt;&lt;b&gt;T&amp;#233;l&amp;#233;phone&lt;/b&gt; : 0345348585&lt;br/&gt;&lt;b&gt;E-mail&lt;/b&gt; : restaurant.montmuzard@crous-dijon.fr&lt;/p&gt;</contact></resto><resto id="r10" lat="45.92051" lon="6.15323" title="Caf&#233;t&#233;ria IUT d'Annecy" type="cafeteria" zone="Annecy - Domaine Universitaire d'Annecy-Le-Vieux"><contact>
&lt;p&gt;
	&lt;span style="font-size:18px;"&gt;&lt;strong&gt;Caf&amp;eacute;t&amp;eacute;ria IUT d&amp;#39;Annecy&lt;/strong&gt;&lt;/span&gt;&lt;/p&gt;
&lt;p&gt;
	&lt;img alt="" src="../../appli.crous-grenoble.fr/fichiers/image/DSC08352%281%29.JPG" style="width: 200px; height: 134px;" /&gt;&lt;/p&gt;
&lt;p&gt;
	&lt;strong&gt;Adresse :&lt;/strong&gt;&lt;/p&gt;
&lt;p&gt;
	IUT Annecy, 9 rue Arc en ciel&lt;br /&gt;
	&lt;em&gt; 74940 Annecy Le Vieux&lt;/em&gt;&lt;/p&gt;
&lt;p&gt;
	&amp;nbsp;&lt;/p&gt;
</contact>
</resto><resto id="r11" lat="45.919389" lon="6.15770" title="Caf&#233;t&#233;ria Polytech Annecy-Chamb&#233;ry" type="cafeteria" zone="Annecy - Domaine Universitaire d'Annecy-Le-Vieux"><contact>
&lt;p&gt;
	&lt;strong&gt;&lt;span style="font-size:18px;"&gt;Caf&amp;eacute;t&amp;eacute;ria Polytech Annecy-Chamb&amp;eacute;ry&lt;/span&gt;&lt;/strong&gt;&lt;/p&gt;
&lt;p&gt;
	&lt;strong&gt;&lt;img alt="" src="../../https@crous.parking.einden.com/static-images/3d2af7f8309d5aefd747a7cd4453b375.jpg" style="max-width: 300px; width: 80%; height: 80%;" /&gt;&lt;/strong&gt;&lt;/p&gt;
&lt;p&gt;
	&lt;strong&gt;Adresse :&lt;/strong&gt;&lt;/p&gt;
&lt;p&gt;
	&lt;em&gt;5, chemin de Bellevue&lt;br /&gt;
	74940 Annecy Le Vieux&lt;br /&gt;
	&lt;br /&gt;
	&lt;strong&gt;Bus&lt;/strong&gt;&amp;nbsp; 2 et 4&lt;/em&gt;&lt;/p&gt;
&lt;p&gt;
	&amp;nbsp;&lt;/p&gt;
</contact>
</resto><resto id="r49" lat="45.919404" lon="6.159786" title="Restaurant Tom Morel" type="resto" zone="Annecy - Domaine Universitaire d'Annecy-Le-Vieux"><contact>
&lt;p&gt;
	&lt;span style="font-size:18px;"&gt;&lt;strong&gt;Restaurant Tom Morel&lt;/strong&gt;&lt;/span&gt;&lt;/p&gt;
&lt;p&gt;
	&lt;img alt="" src="../../https@crous.parking.einden.com/static-images/1d416dc65f36adbcd6647374439003fe.jpg" style="max-width: 300px; width: 80%; height: 80%;" /&gt;&lt;/p&gt;
&lt;p&gt;
	&lt;strong&gt;Adresse :&lt;/strong&gt;&lt;/p&gt;
&lt;p&gt;
	&lt;em&gt;Domaine universitaire&lt;br /&gt;
	74940 Annecy Le Vieux&lt;br /&gt;
	&lt;br /&gt;
	&lt;strong&gt;T&amp;eacute;l&amp;eacute;phone :&lt;br /&gt;
	&lt;/strong&gt;04.50.09.53.08&lt;/em&gt;&lt;/p&gt;
</contact>
</resto><resto id="r9" lat="45.919606" lon="6.157000" title="Restaurant Universitaire d'Annecy" type="resto" zone="Annecy - Domaine Universitaire d'Annecy-Le-Vieux"><contact>
&lt;p&gt;
	&lt;span style="font-size:18px;"&gt;&lt;strong&gt;Restaurant Universitaire d&amp;#39;Annecy&lt;/strong&gt;&lt;/span&gt;&lt;/p&gt;
&lt;p&gt;
	&lt;img alt="Annecy" src="../../https@crous.parking.einden.com/static-images/66abd789ac9fae261fcfbdda6fd820a5.jpg" style="max-width: 300px; width: 80%; height: 80%;" /&gt;&lt;/p&gt;
&lt;p&gt;
	&lt;strong&gt;Adresse :&lt;/strong&gt;&lt;/p&gt;
&lt;p&gt;
	&lt;em&gt;3, chemin de Bellevue&lt;br /&gt;
	74940 Annecy Le Vieux&lt;br /&gt;
	&lt;br /&gt;
	&lt;strong&gt;T&amp;eacute;l :&lt;/strong&gt; 04 50 66 39 44&lt;/em&gt;&lt;/p&gt;
&lt;p&gt;
	&lt;em&gt;&lt;strong&gt;Fax :&lt;/strong&gt; 04 50 66 53 79&lt;br /&gt;
	&lt;br /&gt;
	&lt;strong&gt;Bus&lt;/strong&gt;&amp;nbsp; 2 et 4&lt;/em&gt;&lt;/p&gt;
&lt;p&gt;
	&amp;nbsp;&lt;/p&gt;
</contact>
</resto><resto id="r36" lat="45.560391" lon="5.914012" title="Caf&#233;t&#233;ria du Restaurant Universitaire de Jacob-Bellecombette" type="cafeteria" zone="Chamb&#233;ry - Campus Universitaire de Jacob"><contact>
&lt;p&gt;
	&lt;span style="font-size:18px;"&gt;&lt;strong&gt;Caf&amp;eacute;t&amp;eacute;ria du Restaurant Universitaire de Jacob-Bellecombette&lt;/strong&gt;&lt;/span&gt;&lt;/p&gt;
&lt;p&gt;
	&lt;span style="font-family: Arial;"&gt;&lt;span style="font-size: small;"&gt;&lt;img alt="" src="../../appli.crous-grenoble.fr/fichiers/image/chambery/DSC02743.JPG" style="width: 200px; height: 150px;" /&gt;&lt;/span&gt;&lt;/span&gt;&lt;/p&gt;
&lt;p&gt;
	&lt;strong&gt;Adresse :&lt;/strong&gt;&lt;/p&gt;
&lt;p&gt;
	&lt;span style="font-size: small;"&gt;&lt;em&gt;Restaurant universitaire Jacob-Bellecombette&lt;/em&gt;&lt;/span&gt;&lt;/p&gt;
&lt;p&gt;
	&lt;br /&gt;
	&lt;span style="font-size: small;"&gt;&lt;em&gt;Campus&lt;/em&gt;&lt;/span&gt;&lt;br /&gt;
	&amp;nbsp;&lt;/p&gt;
&lt;p&gt;
	&lt;span style="font-size: small;"&gt;&lt;em&gt;73 000 Jacob-Bellecombette&lt;/em&gt;&lt;/span&gt;&lt;/p&gt;
&lt;p&gt;
	&amp;nbsp;&lt;/p&gt;
</contact>
</resto><resto id="r37" lat="45.559427" lon="5.912911" title="Jacob Caf&#233;" type="cafeteria" zone="Chamb&#233;ry - Campus Universitaire de Jacob"><contact>
&lt;p&gt;
	&lt;span style="font-size:18px;"&gt;&lt;strong&gt;Jacob Caf&amp;eacute;&lt;/strong&gt;&lt;/span&gt;&lt;/p&gt;
&lt;p&gt;
	&lt;img alt="" src="../../https@crous.parking.einden.com/static-images/bda12bdedddc184870e51a805b1b2714.jpg" style="width: 300px; height: 175px;" /&gt;&lt;/p&gt;
&lt;p&gt;
	&amp;nbsp;&lt;/p&gt;
&lt;p&gt;
	18 rue Jean Baptiste Richard&lt;br /&gt;
	73000 JACOB BELLECOMBETTE&lt;/p&gt;
</contact>
</resto><resto id="r35" lat="45.56039" lon="5.91401" title="Restaurant Universitaire de Jacob-Bellecombette" type="resto" zone="Chamb&#233;ry - Campus Universitaire de Jacob"><contact>
&lt;p&gt;
	&lt;span style="font-size:18px;"&gt;&lt;strong&gt;Restaurant Universitaire de Jacob-Bellecombette&lt;/strong&gt;&lt;/span&gt;&lt;/p&gt;
&lt;p&gt;
	&lt;span style="font-family: Arial;"&gt;&lt;img alt="" src="../../https@crous.parking.einden.com/static-images/585fc2fa6648eec23218cb9a46e7e8c1.jpg" style="max-width: 300px; width: 80%; height: 80%;" /&gt;&lt;/span&gt;&lt;/p&gt;
&lt;p&gt;
	&lt;strong&gt;Adresse :&lt;/strong&gt;&lt;/p&gt;
&lt;p&gt;
	&lt;span style="font-size: small;"&gt;&lt;em&gt;Restaurant universitaire Jacob-Bellecombette&lt;/em&gt;&lt;/span&gt;&lt;/p&gt;
&lt;p&gt;
	Campus&lt;/p&gt;
&lt;p&gt;
	&lt;span style="font-size: small;"&gt;&lt;em&gt;73 000 Jacob-Bellecombette&lt;/em&gt;&lt;/span&gt;&lt;/p&gt;
&lt;p&gt;
	&lt;span style="font-size: small;"&gt;&lt;em&gt;&lt;strong&gt;T&amp;eacute;l :&lt;/strong&gt; 04 79 69 55 62&lt;/em&gt;&lt;/span&gt;&lt;/p&gt;
&lt;p&gt;
	&lt;span style="font-size: small;"&gt;&lt;em&gt;&lt;strong&gt;Bus&lt;/strong&gt; : 9 et 14&lt;/em&gt;&lt;/span&gt;&lt;/p&gt;
&lt;p&gt;
	&amp;nbsp;&lt;/p&gt;
</contact>
</resto><resto id="r27" lat="45.165040" lon="5.727911" title="Caf&#233;t&#233;ria Cit&#233; des Territoires IGA" type="cafeteria" zone="Grenoble - Dans l'agglom&#233;ration"><contact>
&lt;p&gt;
	&lt;strong&gt;&lt;span style="font-size: 18px;"&gt;Caf&amp;eacute;t&amp;eacute;ria Cit&amp;eacute; des territoires IGA&lt;/span&gt;&lt;br /&gt;
	&lt;br /&gt;
	&lt;br /&gt;
	Adresse :&lt;/strong&gt;&lt;/p&gt;
&lt;p&gt;
	&lt;em&gt;14 avenue Marie Reynoard&lt;br /&gt;
	38 000 Grenoble&lt;/em&gt;&lt;/p&gt;
&lt;p&gt;
	&amp;nbsp;&lt;/p&gt;
</contact>
</resto><resto id="r29" lat="45.18456" lon="5.75357" title="Caf&#233;t&#233;ria Polytech'Grenoble" type="cafeteria" zone="Grenoble - Dans l'agglom&#233;ration"><contact>
&lt;p&gt;
	&lt;span style="font-size:18px;"&gt;&lt;strong&gt;Caf&amp;eacute;t&amp;eacute;ria Polytech&amp;#39;Grenoble&lt;/strong&gt;&lt;/span&gt;&lt;/p&gt;
&lt;p&gt;
	&lt;strong&gt;&lt;img alt="" src="../../https@appli.crous-grenoble.fr/fichiers/image/restaurant/caf_25C3_25A9t%20Polytech.JPG" style="width: 200px; height: 134px;" /&gt;&lt;/strong&gt;&lt;/p&gt;
&lt;p&gt;
	&lt;strong&gt;Adresse :&lt;/strong&gt;&lt;/p&gt;
&lt;p&gt;
	28 avenue Beno&amp;icirc;t Frachon&lt;br /&gt;
	38400 Saint Martin d&amp;#39;H&amp;egrave;res&lt;/p&gt;
&lt;p&gt;
	&amp;nbsp;&lt;/p&gt;
</contact>
</resto><resto id="r72" lat="45.2025805" lon="5.7034807" title="KIOSQUE GREEN-ER" type="cafeteria" zone="Grenoble - Dans l'agglom&#233;ration"><contact>
&lt;div&gt;
	&lt;strong&gt;&lt;span style="font-size:18px;"&gt;Kiosque Green&lt;/span&gt;&lt;br /&gt;
	&lt;br /&gt;
	&lt;img alt="" src="../../https@crous.parking.einden.com/static-images/0bf3aafa70bdec32a46523ce63d6eeea.jpg" style="width: 132px; height: 200px;" /&gt;&lt;br /&gt;
	&lt;br /&gt;
	Adresse :&lt;/strong&gt;&lt;br /&gt;
	&lt;div class="widget-reveal-card-address" role="link" style="" tabindex="0"&gt;
		&lt;div class="widget-reveal-card-address-line widget-reveal-card-bold" style=""&gt;
			21 Avenue des Martyrs&lt;/div&gt;
		&lt;div class="widget-reveal-card-address-line" style=""&gt;
			38000 Grenoble&lt;/div&gt;
	&lt;/div&gt;
&lt;/div&gt;
</contact>
</resto><resto id="r26" lat="45.174697" lon="5.730424" title="Restaurant de l'E.S.P.E." type="resto" zone="Grenoble - Dans l'agglom&#233;ration"><contact>
&lt;p&gt;
	&lt;span style="font-size:18px;"&gt;&lt;strong&gt;Restaurant de l&amp;#39;E.S.P.E.&lt;/strong&gt;&lt;/span&gt;&lt;/p&gt;
&lt;p&gt;
	&lt;img alt="Restaurant IUFM" src="../../https@crous.parking.einden.com/static-images/6311291e8a2741e6d63ef148f1528959.jpg" style="margin: 0px; max-width: 300px; width: 80%; height: 80%;" /&gt;&lt;/p&gt;
&lt;p&gt;
	&lt;strong&gt;Adresse :&lt;/strong&gt;&lt;/p&gt;
&lt;p&gt;
	&lt;em&gt;30 avenue Marcelin Berthelot&lt;br /&gt;
	38000 Grenoble&lt;br /&gt;
	&lt;br /&gt;
	&lt;strong&gt;T&amp;eacute;l : &lt;/strong&gt;04.76.27.45.68&lt;/em&gt;&lt;/p&gt;
&lt;p&gt;
	&amp;nbsp;&lt;/p&gt;
</contact>
</resto><resto id="r5" lat="45.196519" lon="5.745543" title="Restaurant La Chantourne" type="resto" zone="Grenoble - Dans l'agglom&#233;ration"><contact>
&lt;p&gt;
	&lt;strong&gt;Restaurant La Chantourne&lt;/strong&gt;&lt;/p&gt;
&lt;p&gt;
	&lt;img alt="La Chantourne" src="../../https@crous.parking.einden.com/static-images/202a3ce54dfde9dcc320c305f9afdf64.jpg" style="margin: 0px; max-width: 300px; width: 80%; height: 80%;" /&gt;&lt;/p&gt;
&lt;p&gt;
	&lt;strong&gt;Adresse :&lt;/strong&gt;&lt;/p&gt;
&lt;p&gt;
	9 bd de La chantourne&lt;br /&gt;
	38700 La Tronche (pr&amp;egrave;s du C.H.U.)&lt;/p&gt;
&lt;p&gt;
	&lt;br /&gt;
	&lt;strong&gt;T&amp;eacute;l :&lt;/strong&gt; 04 76 63 32 05&lt;/p&gt;
</contact>
</resto><resto id="r70" lat="45.202500" lon="5.703918" title="RU Green" type="resto" zone="Grenoble - Dans l'agglom&#233;ration"><contact>
&lt;div&gt;
	&lt;strong&gt;&lt;span style="font-size:18px;"&gt;RU Green&lt;/span&gt;&lt;br /&gt;
	&lt;br /&gt;
	&lt;img alt="" src="../../https@crous.parking.einden.com/static-images/0bf3aafa70bdec32a46523ce63d6eeea.jpg" style="width: 132px; height: 200px;" /&gt;&lt;br /&gt;
	&lt;br /&gt;
	Adresse :&lt;/strong&gt;&lt;br /&gt;
	&lt;div class="widget-reveal-card-address" role="link" style="" tabindex="0"&gt;
		&lt;div class="widget-reveal-card-address-line widget-reveal-card-bold" style=""&gt;
			21 Avenue des Martyrs&lt;/div&gt;
		&lt;div class="widget-reveal-card-address-line" style=""&gt;
			38000 Grenoble&lt;/div&gt;
	&lt;/div&gt;
&lt;/div&gt;
</contact>
</resto><resto id="r65" lat="45.1960596" lon="5.7702763" title=" Caf&#233;t&#233;ria Phelma" type="cafeteria" zone="Grenoble - Domaine Universitaire"><contact>
&lt;div&gt;
	&lt;strong&gt;&lt;span style="font-size:18px;"&gt;&amp;nbsp;Caf&amp;eacute;t&amp;eacute;ria Phelma&lt;/span&gt;&lt;br /&gt;
	&lt;br /&gt;
	&lt;img alt="" src="../../https@appli.crous-grenoble.fr/fichiers/image/Phelma.JPG" style="width: 200px; height: 132px;" /&gt;&lt;br /&gt;
	&lt;br /&gt;
	Adresse :&lt;/strong&gt;&lt;br /&gt;
	&lt;em&gt;1130 rue de la piscine&lt;br /&gt;
	Domaine Universitaire&lt;br /&gt;
	38400 Saint Martin d&amp;#39;H&amp;egrave;res&lt;/em&gt;&lt;/div&gt;
</contact>
</resto><resto id="r59" lat="45.192371" lon="5.769150" title="Caf&#233; des Sciences" type="cafeteria" zone="Grenoble - Domaine Universitaire"><contact>
&lt;p&gt;
	&lt;strong&gt;&lt;span style="font-size:18px;"&gt;Caf&amp;eacute; des Sciences&lt;/span&gt;&lt;/strong&gt;&lt;br /&gt;
	&lt;br /&gt;
	&lt;strong&gt;&lt;span&gt;&lt;img alt="" src="../../https@crous.parking.einden.com/static-images/377a675c09de366283af243f2617ef71.jpg" style="max-width: 300px; width: 80%; height: 80%;" /&gt;&lt;/span&gt;&lt;/strong&gt;&lt;br /&gt;
	&lt;br /&gt;
	&lt;strong&gt;Adresse :&lt;/strong&gt;&lt;/p&gt;
&lt;p&gt;
	&lt;em&gt;915 avenue centrale&lt;br /&gt;
	Domaine Universitaire&lt;br /&gt;
	38400 St Martin d&amp;#39;H&amp;egrave;res&lt;/em&gt;&lt;/p&gt;
&lt;p&gt;
	&amp;nbsp;&lt;/p&gt;
</contact>
</resto><resto id="r60" lat="45.190326" lon="5.772744" title="Caf&#233; Litt&#233;raire" type="cafeteria" zone="Grenoble - Domaine Universitaire"><contact>
&lt;p&gt;
	&lt;strong&gt;&lt;span style="font-size:18px;"&gt;Caf&amp;eacute; Litt&amp;eacute;raire&lt;/span&gt;&lt;br /&gt;
	&lt;br /&gt;
	&lt;strong&gt;&lt;img alt="" src="../../https@crous.parking.einden.com/static-images/84f5dcd1657d556330fef7a47ae93c7d.jpg" style="max-width: 300px; width: 80%; margin: 0px; height: 80%;" /&gt;&lt;/strong&gt;&lt;br /&gt;
	&lt;br /&gt;
	Adresse :&lt;/strong&gt;&lt;/p&gt;
&lt;p&gt;
	&lt;em&gt;71 Ter rue des universit&amp;eacute;s&lt;br /&gt;
	Domaine Universitaire&lt;br /&gt;
	38400 St Martin d&amp;#39;H&amp;egrave;res&lt;/em&gt;&lt;/p&gt;
&lt;p&gt;
	&amp;nbsp;&lt;/p&gt;
</contact>
</resto><resto id="r13" lat="45.190436" lon="5.760650" title="Caf&#233;t&#233;ria Barnave" type="cafeteria" zone="Grenoble - Domaine Universitaire"><contact>
&lt;p&gt;
	&lt;strong&gt;Caf&amp;eacute;t&amp;eacute;ria Barnave&lt;/strong&gt;&lt;br /&gt;
	&lt;br /&gt;
	&lt;strong&gt;&lt;strong&gt;&lt;span&gt;&lt;img alt="" src="../../https@crous.parking.einden.com/static-images/50bdb103a597d2b1c455ce357b5237d1.jpg" style="width: 40%; margin: 0px; max-width: 300px;" /&gt;&lt;/span&gt;&lt;/strong&gt;&lt;br /&gt;
	&lt;br /&gt;
	Adresse :&lt;/strong&gt;&lt;/p&gt;
&lt;p&gt;
	&lt;em&gt;Domaine universitaire&lt;br /&gt;
	121 rue des r&amp;eacute;sidences&lt;br /&gt;
	38400 Saint Martin d&amp;#39;H&amp;egrave;res&lt;/em&gt;&lt;/p&gt;
&lt;p&gt;
	&amp;nbsp;&lt;/p&gt;
</contact>
</resto><resto id="r22" lat="45.19375" lon="5.77633" title="Caf&#233;t&#233;ria de l'UFR Biologie" type="cafeteria" zone="Grenoble - Domaine Universitaire"><contact>
&lt;p&gt;
	&lt;span style="font-size:18px;"&gt;&lt;strong&gt;Caf&amp;eacute;t&amp;eacute;ria de l&amp;#39;UFR Biologie&lt;/strong&gt;&lt;/span&gt;&lt;/p&gt;
&lt;p&gt;
	&lt;strong&gt;&lt;span style="font-size: large"&gt;&lt;img alt="" src="../../https@crous.parking.einden.com/static-images/c0f124613c75a12aa95ffa8e861a0471.jpg" style="max-width: 300px; width: 80%; height: 80%;" /&gt;&lt;/span&gt;&lt;/strong&gt;&lt;/p&gt;
&lt;p&gt;
	&lt;strong&gt;Adresse :&lt;/strong&gt;&lt;/p&gt;
&lt;p&gt;
	&lt;em&gt;Domaine universitaire&lt;br /&gt;
	2231 rue de la piscine&lt;br /&gt;
	38400 St Martin d&amp;#39;H&amp;egrave;res&lt;/em&gt;&lt;/p&gt;
&lt;p&gt;
	&amp;nbsp;&lt;/p&gt;
</contact>
</resto><resto id="r19" lat="45.190264" lon="5.768813" title="Caf&#233;t&#233;ria Diderot (Sandwicherie)" type="cafeteria" zone="Grenoble - Domaine Universitaire"><contact>
&lt;p&gt;
	&lt;span style="font-size:18px;"&gt;&lt;strong&gt;Caf&amp;eacute;t&amp;eacute;ria Diderot (Sandwicherie)&lt;/strong&gt;&lt;/span&gt;&lt;/p&gt;
&lt;p&gt;
	&lt;strong&gt;&lt;span style="font-size: larger"&gt;&lt;img alt="" src="../../https@crous.parking.einden.com/static-images/cabe6a796d39c56dabb653944b1f72d0.jpg" style="max-width: 300px; width: 80%; height: 80%;" /&gt;&lt;/span&gt;&lt;/strong&gt;&lt;/p&gt;
&lt;p&gt;
	&lt;strong&gt;Adresse :&lt;/strong&gt;&lt;/p&gt;
&lt;p&gt;
	&lt;em&gt;Rue des universit&amp;eacute;s&lt;br /&gt;
	Domaine Universitaire&lt;br /&gt;
	38400 St Martin d&amp;#39;H&amp;egrave;res&lt;/em&gt;&lt;/p&gt;
&lt;p&gt;
	&amp;nbsp;&lt;/p&gt;
</contact>
</resto><resto id="r66" lat="45.1963594" lon="5.7746332" title="Caf&#233;t&#233;ria In Box " type="cafeteria" zone="Grenoble - Domaine Universitaire"><contact>
&lt;p&gt;
	&lt;span style="font-size:18px;"&gt;&lt;strong&gt;Caf&amp;eacute;t&amp;eacute;ria In Box &lt;/strong&gt;&lt;/span&gt;&lt;/p&gt;
&lt;p&gt;
	&lt;img alt="" src="../../https@crous.parking.einden.com/static-images/07440388952861ec89c1999e8b307616.jpg" style="width: 200px; height: 133px;" /&gt;&lt;/p&gt;
&lt;p&gt;
	&lt;strong&gt;Adresse :&lt;/strong&gt;&lt;br /&gt;
	&lt;em&gt;410 rue de la pap&amp;egrave;terie&lt;br /&gt;
	Domaine Universitaire&lt;br /&gt;
	38610 Gi&amp;egrave;res&lt;/em&gt;&lt;/p&gt;
&lt;p&gt;
	&amp;nbsp;&lt;/p&gt;
&lt;p&gt;
	&amp;nbsp;&lt;/p&gt;
</contact>
</resto><resto id="r52" lat="45.194364" lon="5.765217" title="Caf&#233;t&#233;ria Maison de l'INP" type="cafeteria" zone="Grenoble - Domaine Universitaire"><contact>
&lt;p&gt;
	&lt;span style="font-size:18px;"&gt;&lt;strong&gt;Caf&amp;eacute;t&amp;eacute;ria Maison de l&amp;#39;INP&lt;/strong&gt;&lt;/span&gt;&lt;/p&gt;
&lt;p&gt;
	&lt;span style="font-size: large"&gt;&lt;img alt="" src="../../https@crous.parking.einden.com/static-images/5fe8ed359065a4b7cd3793f9a1fbc210.jpg" style="max-width: 300px; width: 80%; height: 80%;" /&gt;&lt;/span&gt;&lt;/p&gt;
&lt;p&gt;
	&lt;strong&gt;Adresse :&lt;/strong&gt;&lt;/p&gt;
&lt;p&gt;
	Maison de l&amp;#39;INP&lt;br /&gt;
	730 rue de la Piscine&lt;br /&gt;
	BP153&lt;br /&gt;
	38404 Saint Martin d&amp;#39;H&amp;egrave;res&lt;/p&gt;
&lt;p&gt;
	&amp;nbsp;&lt;/p&gt;
</contact>
</resto><resto id="r21" lat="45.19060" lon="5.77469" title="Caf&#233;t&#233;ria Stendhal" type="cafeteria" zone="Grenoble - Domaine Universitaire"><contact>
&lt;p&gt;
	&lt;span style="font-size:18px;"&gt;&lt;strong&gt;Caf&amp;eacute;t&amp;eacute;ria Stendhal&lt;/strong&gt;&lt;/span&gt;&lt;/p&gt;
&lt;p&gt;
	&lt;img alt="Stendhal" src="../../https@crous.parking.einden.com/static-images/8744402cb87282a41cafd4b872ed0d71.jpg" style="max-width: 300px; width: 80%; height: 80%;" /&gt;&lt;/p&gt;
&lt;p&gt;
	&lt;strong&gt;Adresse :&lt;/strong&gt;&lt;/p&gt;
&lt;p&gt;
	&lt;em&gt;1491 rue des universit&amp;eacute;s&lt;br /&gt;
	38400 St Martin H&amp;egrave;res&lt;/em&gt;&lt;/p&gt;
&lt;p&gt;
	&amp;nbsp;&lt;/p&gt;
</contact>
</resto><resto id="r67" lat="45.188732" lon="5.773795" title="Caf&#233;t&#233;ria Tutti Quanti" type="cafeteria" zone="Grenoble - Domaine Universitaire"><contact>
&lt;p&gt;
	&lt;span style="font-size:18px;"&gt;&lt;strong&gt;Caf&amp;eacute;t&amp;eacute;ria Tutti Quanti&lt;/strong&gt;&lt;/span&gt;&lt;/p&gt;
&lt;p&gt;
	&lt;img alt="" src="../../https@crous.parking.einden.com/static-images/ac0a50dc4ef9d4f3a5c8ee9857f80657.jpg" style="width: 300px; height: 212px;" /&gt;&lt;/p&gt;
&lt;p&gt;
	&lt;strong&gt;Adresse :&lt;/strong&gt;&lt;br /&gt;
	&lt;em&gt; &lt;em&gt;1220 rue des r&amp;eacute;sidences&lt;br /&gt;
	Domaine Universitaire&lt;br /&gt;
	38400 Saint Martin d&amp;#39;H&amp;egrave;res&lt;/em&gt;&lt;/em&gt;&lt;/p&gt;
&lt;p&gt;
	&amp;nbsp;&lt;/p&gt;
&lt;p&gt;
	&amp;nbsp;&lt;/p&gt;
</contact>
</resto><resto id="r15" lat="45.19826" lon="5.7771" title="Caf&#233;t&#233;ria UFRAPS" type="cafeteria" zone="Grenoble - Domaine Universitaire"><contact>
&lt;p&gt;
	&lt;span style="font-size:18px;"&gt;&lt;strong&gt;Caf&amp;eacute;t&amp;eacute;ria UFRAPS&lt;/strong&gt;&lt;/span&gt;&lt;/p&gt;
&lt;p&gt;
	&lt;img alt="" src="../../https@crous.parking.einden.com/static-images/e2096a48859722bf283c00c539499eba.jpg" style="max-width: 300px; width: 80%; height: 80%;" /&gt;&lt;/p&gt;
&lt;p&gt;
	&lt;strong&gt;Adresse :&lt;/strong&gt;&lt;/p&gt;
&lt;p&gt;
	&lt;em&gt;Domaine Universitaire&lt;br /&gt;
	1741 rue de la piscine&lt;br /&gt;
	38406 St Martin d&amp;#39;H&amp;egrave;res&lt;/em&gt;&lt;/p&gt;
&lt;p&gt;
	&amp;nbsp;&lt;/p&gt;
</contact>
</resto><resto id="r20" lat="45.191404" lon="5.765518" title="K'fet du DLST" type="cafeteria" zone="Grenoble - Domaine Universitaire"><contact>
&lt;p&gt;
	&lt;span style="font-size:18px;"&gt;&lt;strong&gt;K&amp;#39;fet du DLST&lt;/strong&gt;&lt;/span&gt;&lt;/p&gt;
&lt;p&gt;
	&lt;img alt="" src="../../https@crous.parking.einden.com/static-images/319266a93ef24588025f55290267c435.jpg" style="max-width: 300px; width: 80%; height: 80%;" /&gt;&lt;/p&gt;
&lt;p&gt;
	&lt;strong&gt;Adresse :&lt;/strong&gt;&lt;/p&gt;
&lt;p&gt;
	&lt;em&gt;480 avenue Centrale&lt;br /&gt;
	Domaine Universitaire&lt;br /&gt;
	38400 St Martin d&amp;#39;H&amp;egrave;res&lt;/em&gt;&lt;/p&gt;
&lt;p&gt;
	&amp;nbsp;&lt;/p&gt;
</contact>
</resto><resto id="r3" lat="45.190691" lon="5.760572" title="Restaurant Barnave (2 salles traditionnelles)" type="resto" zone="Grenoble - Domaine Universitaire"><contact>
&lt;p&gt;
	&lt;span style="font-size:18px;"&gt;&lt;strong&gt;Restaurant Barnave (2 salles traditionnelles)&lt;/strong&gt;&lt;/span&gt;&lt;/p&gt;
&lt;p&gt;
	&lt;img alt="" src="../../https@appli.crous-grenoble.fr/fichiers/image/restaurant/RU%20Barnave.JPG" style="width: 200px; height: 134px;" /&gt;&lt;/p&gt;
&lt;p&gt;
	&lt;strong&gt;Adresse :&lt;/strong&gt;&lt;/p&gt;
&lt;p&gt;
	&lt;em&gt;121 Rue des R&amp;eacute;sidences&lt;br /&gt;
	Domaine Universitaire&lt;br /&gt;
	38400 St Martin d&amp;#39;H&amp;egrave;res&lt;br /&gt;
	&lt;br /&gt;
	&lt;strong&gt;T&amp;eacute;l :&lt;/strong&gt; 04 76 82 40 85&lt;/em&gt;&lt;/p&gt;
&lt;p&gt;
	&amp;nbsp;&lt;/p&gt;
</contact>
</resto><resto id="r24" lat="45.190457" lon="5.760687" title="Restaurant Barnave (salle La Framboisi&#232;re)" type="resto" zone="Grenoble - Domaine Universitaire"><contact>
&lt;p&gt;
	&lt;span style="font-size:18px;"&gt;&lt;strong&gt;Restaurant Barnave (salle La Framboisi&amp;egrave;re)&lt;/strong&gt;&lt;/span&gt;&lt;/p&gt;
&lt;p&gt;
	&lt;img alt="" src="../../https@appli.crous-grenoble.fr/fichiers/image/restaurant/RU%20Barnave.JPG" style="width: 200px; height: 134px;" /&gt;&lt;/p&gt;
&lt;p&gt;
	&lt;strong&gt;Adresse :&lt;/strong&gt;&lt;/p&gt;
&lt;p&gt;
	&lt;em&gt;121 Rue des R&amp;eacute;sidences&lt;br /&gt;
	Domaine Universitaire&lt;br /&gt;
	38400 St Martin d&amp;#39;H&amp;egrave;res&lt;br /&gt;
	&lt;br /&gt;
	&lt;strong&gt;T&amp;eacute;l :&lt;/strong&gt; 04 76 82 40 85&lt;/em&gt;&lt;/p&gt;
&lt;p&gt;
	&amp;nbsp;&lt;/p&gt;
</contact>
</resto><resto id="r45" lat="45.191022" lon="5.760927" title="Restaurant Barnave (salle personnels)" type="resto" zone="Grenoble - Domaine Universitaire"><contact>
&lt;p&gt;
	&lt;span style="font-size:18px;"&gt;&lt;strong&gt;Restaurant Barnave (salle personnels)&lt;/strong&gt;&lt;/span&gt;&lt;/p&gt;
&lt;p&gt;
	&lt;img alt="" src="../../https@appli.crous-grenoble.fr/fichiers/image/DSC09568.JPG" style="max-width: 300px; width: 80%; height: 80%;" /&gt;&lt;/p&gt;
&lt;p&gt;
	&lt;strong&gt;Adresse :&lt;/strong&gt;&lt;/p&gt;
&lt;p&gt;
	&lt;em&gt;121 Rue des R&amp;eacute;sidences&lt;br /&gt;
	Domaine Universitaire&lt;br /&gt;
	38400 St Martin d&amp;#39;H&amp;egrave;res&lt;br /&gt;
	&lt;br /&gt;
	&lt;strong&gt;T&amp;eacute;l :&lt;/strong&gt; 04 76 82 40 85&lt;/em&gt;&lt;/p&gt;
&lt;p&gt;
	&amp;nbsp;&lt;/p&gt;
</contact>
</resto><resto id="r4" lat="45.188462" lon="5.773684" title="Restaurant Condillac" type="resto" zone="Grenoble - Domaine Universitaire"><contact>
&lt;p&gt;
	&lt;strong&gt;&lt;strong&gt;&lt;span style="font-size:18px;"&gt;&lt;strong&gt;&lt;strong&gt;&lt;span style="font-size:18px;"&gt;Restaurant Condillac&lt;/span&gt;&lt;/strong&gt;&lt;/strong&gt;&lt;br /&gt;
	&lt;br /&gt;
	&lt;img alt="Condillac" src="../../https@crous.parking.einden.com/static-images/234a1bdcf182fbe811a036ae159affb9.jpg" style="max-width: 300px; width: 80%; height: 80%;" /&gt;&lt;br /&gt;
	&lt;/span&gt;&lt;/strong&gt;&lt;br /&gt;
	Adresse :&lt;/strong&gt;&lt;/p&gt;
&lt;p&gt;
	&lt;em&gt;1220, rue des r&amp;eacute;sidences&lt;br /&gt;
	38400 St Martin d&amp;#39;H&amp;egrave;res&lt;br /&gt;
	&lt;br /&gt;
	&lt;b&gt;T&amp;eacute;l : &lt;/b&gt;04 76 82 76 30&lt;/em&gt;&lt;/p&gt;
</contact>
</resto><resto id="r18" lat="45.190594" lon="5.768939" title="Restaurant Diderot (Entracte)" type="resto" zone="Grenoble - Domaine Universitaire"><contact>
&lt;p&gt;
	&lt;span style="font-size:18px;"&gt;&lt;strong&gt;Restaurant Diderot (Entracte)&lt;/strong&gt;&lt;/span&gt;&lt;/p&gt;
&lt;p&gt;
	&lt;img alt="" src="../../https@appli.crous-grenoble.fr/fichiers/image/restaurant/Entracte.JPG" style="max-width: 300px; width: 80%; height: 80%;" /&gt;&lt;/p&gt;
&lt;p&gt;
	&lt;strong&gt;Adresse :&lt;/strong&gt;&lt;/p&gt;
&lt;p&gt;
	&lt;em&gt;Domaine Universitaire&lt;br /&gt;
	Rue des Universit&amp;eacute;s&lt;br /&gt;
	38400 St Martin d&amp;#39;H&amp;egrave;res&lt;/em&gt;&lt;/p&gt;
&lt;p&gt;
	&amp;nbsp;&lt;/p&gt;
</contact>
</resto><resto id="r17" lat="45.190704" lon="5.768828" title="Restaurant Diderot (Traditionnel)" type="resto" zone="Grenoble - Domaine Universitaire"><contact>
&lt;p&gt;
	&lt;span style="font-size:18px;"&gt;&lt;strong&gt;Restaurant Diderot (Traditionnel)&lt;/strong&gt;&lt;/span&gt;&lt;/p&gt;
&lt;p&gt;
	&lt;img alt="Diderot" src="../../https@crous.parking.einden.com/static-images/2bc71a9c4359d0d4eaebeda5dae1ec0f.jpg" style="margin: 0px; width: 80%; max-width: 300px; height: 80%;" /&gt;&lt;/p&gt;
&lt;p&gt;
	&lt;strong&gt;Adresse :&lt;/strong&gt;&lt;/p&gt;
&lt;p&gt;
	&lt;em&gt;Rue des universit&amp;eacute;s&lt;br /&gt;
	Domaine Universitaire&lt;br /&gt;
	38400 St Martin d&amp;#39;H&amp;egrave;res&lt;br /&gt;
	&lt;br /&gt;
	&lt;strong&gt;T&amp;eacute;l :&lt;/strong&gt; 04 76 82 40 80&lt;/em&gt;&lt;/p&gt;
&lt;p&gt;
	&amp;nbsp;&lt;/p&gt;
</contact>
</resto><resto id="r46" lat="45.190347" lon="5.768849" title="Restaurant Diderot Duht&#233;rian (administratif)" type="resto" zone="Grenoble - Domaine Universitaire"><contact>
&lt;p&gt;
	&lt;span style="font-size:18px;"&gt;&lt;strong&gt;Restaurant Diderot Duht&amp;eacute;rian (administratif)&lt;/strong&gt;&lt;/span&gt;&lt;/p&gt;
&lt;p&gt;
	&lt;img alt="" src="../../https@crous.parking.einden.com/static-images/b02885e9f86a93f866aa50d86524d901.jpg" style="max-width: 300px; width: 80%; height: 80%;" /&gt;&lt;/p&gt;
&lt;p&gt;
	&lt;strong&gt;Adresse :&lt;/strong&gt;&lt;/p&gt;
&lt;p&gt;
	&lt;em&gt;Rue des universit&amp;eacute;s&lt;br /&gt;
	Domaine Universitaire&lt;br /&gt;
	38400 St Martin d&amp;#39;H&amp;egrave;res&lt;/em&gt;&lt;/p&gt;
</contact>
</resto><resto id="r61" lat="45.196534" lon="5.774396" title="Restaurant L'Epic&#233;a (Brasserie)" type="resto" zone="Grenoble - Domaine Universitaire"><contact>
&lt;p&gt;
	&lt;span style="font-size:18px;"&gt;&lt;strong&gt;Restaurant L&amp;#39;Epic&amp;eacute;a (Brasserie)&lt;/strong&gt;&lt;/span&gt;&lt;/p&gt;
&lt;p&gt;
	&lt;img alt="" src="../../https@crous.parking.einden.com/static-images/3bc364730fffc1bb37f6aca0fd2c82e7.jpg" style="max-width: 300px; width: 80%; height: 80%;" /&gt;&lt;/p&gt;
&lt;p&gt;
	&lt;strong&gt;Adresse :&lt;/strong&gt;&lt;/p&gt;
&lt;p&gt;
	&lt;em&gt;Domaine universitaire&lt;br /&gt;
	Rue de la papeterie&lt;br /&gt;
	St Martin d&amp;#39;H&amp;egrave;res&lt;/em&gt;&lt;/p&gt;
&lt;p&gt;
	&amp;nbsp;&lt;/p&gt;
</contact>
</resto><resto id="r23" lat="45.196534" lon="5.774396" title="Restaurant L'Epic&#233;a (Snack)" type="resto" zone="Grenoble - Domaine Universitaire"><contact>
&lt;p&gt;
	&lt;span style="font-size:18px;"&gt;&lt;strong&gt;Restaurant L&amp;#39;Epic&amp;eacute;a (Snack)&lt;/strong&gt;&lt;/span&gt;&lt;/p&gt;
&lt;p&gt;
	&lt;img alt="" src="../../https@crous.parking.einden.com/static-images/3bc364730fffc1bb37f6aca0fd2c82e7.jpg" style="max-width: 300px; width: 80%; height: 80%;" /&gt;&lt;/p&gt;
&lt;p&gt;
	&lt;strong&gt;Adresse :&lt;/strong&gt;&lt;/p&gt;
&lt;p&gt;
	&lt;em&gt;Domaine universitaire&lt;br /&gt;
	Rue de la papeterie&lt;br /&gt;
	St Martin d&amp;#39;H&amp;egrave;res&lt;/em&gt;&lt;/p&gt;
&lt;p&gt;
	&amp;nbsp;&lt;/p&gt;
</contact>
</resto><resto id="r58" lat="45.189903" lon="5.769026" title="Restaurant La Verri&#232;re" type="resto" zone="Grenoble - Domaine Universitaire"><contact>
&lt;p&gt;
	&lt;span style="font-size:18px;"&gt;&lt;strong&gt;Restaurant La Verri&amp;egrave;re&lt;/strong&gt;&lt;/span&gt;&lt;/p&gt;
&lt;p&gt;
	&lt;strong&gt;&lt;span style="font-size: larger"&gt;&lt;img alt="" src="../../https@crous.parking.einden.com/static-images/fffe74546d2a039c889a4e3916e07c3d.jpg" style="max-width: 300px; width: 80%; height: 80%;" /&gt;&lt;/span&gt;&lt;/strong&gt;&lt;/p&gt;
&lt;p&gt;
	&lt;strong&gt;Adresse :&lt;/strong&gt;&lt;/p&gt;
&lt;p&gt;
	&lt;em&gt;Domaine Universitaire&lt;br /&gt;
	Rue des Universit&amp;eacute;s&lt;br /&gt;
	38400 St Martin d&amp;#39;H&amp;egrave;res&lt;/em&gt;&lt;/p&gt;
&lt;p&gt;
	&amp;nbsp;&lt;/p&gt;
</contact>
</resto><resto id="r6" lat="45.192136" lon="5.717669" title="Caf&#233;t&#233;ria d'Arsonval" type="cafeteria" zone="Grenoble - En ville"><contact>
&lt;p&gt;
	&lt;span style="font-size: 18px;"&gt;&lt;strong&gt;Caf&amp;eacute;t&amp;eacute;ria d&amp;#39;Arsonval&lt;/strong&gt;&lt;/span&gt;&lt;/p&gt;
&lt;p&gt;
	&lt;span style="font-size: larger;"&gt;&lt;strong&gt;&lt;img alt="" src="../../https@crous.parking.einden.com/static-images/a106daaa426a3040feab7b54e3e51a00.jpg" style="width: 80%; height: 80%; max-width: 300px;" /&gt;&lt;/strong&gt;&lt;/span&gt;&lt;/p&gt;
&lt;p&gt;
	&lt;strong&gt;Adresse :&lt;/strong&gt;&lt;/p&gt;
&lt;p&gt;
	&lt;em&gt;5 rue d&amp;#39;Arsonval&lt;br /&gt;
	38000 Grenoble&lt;/em&gt;&lt;br /&gt;
	&lt;br /&gt;
	T&amp;eacute;l : 04 76 57 44 78&lt;/p&gt;
&lt;p&gt;
	&amp;nbsp;&lt;/p&gt;
</contact>
</resto><resto id="r43" lat="45.194905" lon="5.710307" title="MANDELA CAFE" type="cafeteria" zone="Grenoble - En ville"><contact>
