{"type":"FeatureCollection","features":[{"type": "Feature", "geometry": {"type": "Point", "coordinates": [2.344228, 48.853093]}, "properties": {"ecrans": 2, "fauteuils": "210", "ndegauto": 8361, "arrondissement": 75005, "art_et_essai": "A", "adresse": "7 PLACE ST MICHEL", "nom_etablissement": "ESPACE SAINT MICHEL 1", "coordonnees": [48.853093, 2.344228]}},{"type": "Feature", "geometry": {"type": "Point", "coordinates": [2.348973, 48.848384]}, "properties": {"ecrans": 2, "fauteuils": "200", "ndegauto": 8374, "arrondissement": 75005, "art_et_essai": "A", "adresse": "23 RUE DES ECOLES", "nom_etablissement": "LE DESPERADO 1", "coordonnees": [48.848384, 2.348973]}},{"type": "Feature", "geometry": {"type": "Point", "coordinates": [2.328009, 48.829473]}, "properties": {"ecrans": 5, "fauteuils": "870", "ndegauto": 8143, "arrondissement": 75014, "art_et_essai": "NON", "adresse": "70 AVENUE DU GENERAL LECLERC", "nom_etablissement": "MISTRAL 2", "coordonnees": [48.829473, 2.328009]}},{"type": "Feature", "geometry": null, "properties": {"ecrans": 4, "fauteuils": "520", "ndegauto": 9616, "nom_etablissement": "MK2 A&E 1", "art_et_essai": "NON"}},{"type": "Feature", "geometry": {"type": "Point", "coordinates": [2.399555, 48.864763]}, "properties": {"ecrans": 6, "fauteuils": "1 238", "ndegauto": 5691, "arrondissement": 75020, "art_et_essai": "NON", "adresse": "6 RUE BELGRAND", "nom_etablissement": "MK2 GAMBETTA 1", "coordonnees": [48.864763, 2.399555]}},{"type": "Feature", "geometry": null, "properties": {"ecrans": 10, "fauteuils": "1 962", "ndegauto": 9700, "nom_etablissement": "PATHE 1", "art_et_essai": "NON"}},{"type": "Feature", "geometry": {"type": "Point", "coordinates": [2.296984, 48.872794]}, "properties": {"ecrans": 2, "fauteuils": "609", "ndegauto": 1031, "arrondissement": 75008, "art_et_essai": "NON", "adresse": "133 AVENUE DES CHAMPS ELYSEES", "nom_etablissement": "PUBLICIS CINEMA 2", "coordonnees": [48.872794, 2.296984]}},{"type": "Feature", "geometry": {"type": "Point", "coordinates": [2.295827, 48.838033]}, "properties": {"ecrans": 6, "fauteuils": "1 078", "ndegauto": 7394, "arrondissement": 75015, "art_et_essai": "NON", "adresse": "27 A 31 RUE ALAIN CHARTIER", "nom_etablissement": "GAUMONT CONVENTION 2", "coordonnees": [48.838033, 2.295827]}},{"type": "Feature", "geometry": {"type": "Point", "coordinates": [2.334386, 48.871048]}, "properties": {"ecrans": 5, "fauteuils": "994", "ndegauto": 202, "arrondissement": 75009, "art_et_essai": "NON", "adresse": "38 BOULEVARD DES ITALIENS", "nom_etablissement": "GAUMONT OPERA FRANCAIS 8", "coordonnees": [48.871048, 2.334386]}},{"type": "Feature", "geometry": {"type": "Point", "coordinates": [2.330648, 48.851278]}, "properties": {"ecrans": 3, "fauteuils": "595", "ndegauto": 8291, "arrondissement": 75006, "art_et_essai": "A", "adresse": "76 RUE DE RENNES", "nom_etablissement": "L'ARLEQUIN PANORAMA", "coordonnees": [48.851278, 2.330648]}},{"type": "Feature", "geometry": {"type": "Point", "coordinates": [2.304317, 48.870843]}, "properties": {"ecrans": 1, "fauteuils": "92", "ndegauto": 9351, "arrondissement": 75008, "art_et_essai": "NON", "adresse": "GRAND PALAIS CHAMPS ELYSEES", "nom_etablissement": "MK2 GRAND PALAIS", "coordonnees": [48.870843, 2.304317]}},{"type": "Feature", "geometry": {"type": "Point", "coordinates": [2.341747, 48.850764]}, "properties": {"ecrans": 1, "fauteuils": "119", "ndegauto": 8341, "arrondissement": 75006, "art_et_essai": "A", "adresse": "6 RUE DE L ECOLE DE MEDECINE", "nom_etablissement": "NOUVEL ODEON", "coordonnees": [48.850764, 2.341747]}},{"type": "Feature", "geometry": {"type": "Point", "coordinates": [2.347076, 48.851619]}, "properties": {"ecrans": 1, "fauteuils": "97", "ndegauto": 733, "arrondissement": 75005, "art_et_essai": "A", "adresse": "42 RUE GALANDE", "nom_etablissement": "STUDIO GALANDE", "coordonnees": [48.851619, 2.347076]}},{"type": "Feature", "geometry": {"type": "Point", "coordinates": [2.303157, 48.870512]}, "properties": {"ecrans": 3, "fauteuils": "448", "ndegauto": 55, "arrondissement": 75008, "art_et_essai": "A", "adresse": "14 RUE LINCOLN", "nom_etablissement": "ELYSEES LINCOLN 1", "coordonnees": [48.870512, 2.303157]}},{"type": "Feature", "geometry": {"type": "Point", "coordinates": [2.370719, 48.853157]}, "properties": {"ecrans": 3, "fauteuils": "483", "ndegauto": 5841, "arrondissement": 75011, "art_et_essai": "NON", "adresse": "5 RUE DU FAUBOURG ST ANTOINE", "nom_etablissement": "LA BASTILLE 1", "coordonnees": [48.853157, 2.370719]}},{"type": "Feature", "geometry": {"type": "Point", "coordinates": [2.373922, 48.833718]}, "properties": {"ecrans": 16, "fauteuils": "2 981", "ndegauto": 9600, "arrondissement": 75013, "art_et_essai": "NON", "adresse": "128 A 162 AVENUE DE FRANCE", "nom_etablissement": "MK2 BIBLIOTHEQUE A", "coordonnees": [48.833718, 2.373922]}},{"type": "Feature", "geometry": {"type": "Point", "coordinates": [2.306888, 48.870374]}, "properties": {"ecrans": 7, "fauteuils": "1 568", "ndegauto": 52, "arrondissement": 75008, "art_et_essai": "NON", "adresse": "50 AVENUE DES CHAMPS ELYSEES", "nom_etablissement": "GAUMONT CHAMPS ELYSEES AMBASSADE 7", "coordonnees": [48.870374, 2.306888]}},{"type": "Feature", "geometry": {"type": "Point", "coordinates": [2.298394, 48.873073]}, "properties": {"ecrans": 11, "fauteuils": "1 666", "ndegauto": 12, "arrondissement": 75008, "art_et_essai": "NON", "adresse": "146 AVENUE DES CHAMPS ELYSEES", "nom_etablissement": "GEORGE V 4", "coordonnees": [48.873073, 2.298394]}},{"type": "Feature", "geometry": {"type": "Point", "coordinates": [2.341975, 48.84815]}, "properties": {"ecrans": 1, "fauteuils": "73", "ndegauto": 8392, "arrondissement": 75005, "art_et_essai": "NON", "adresse": "20 RUE CUJAS", "nom_etablissement": "ACCATONE", "coordonnees": [48.84815, 2.341975]}},{"type": "Feature", "geometry": {"type": "Point", "coordinates": [2.335342, 48.886142]}, "properties": {"ecrans": 1, "fauteuils": "172", "ndegauto": 3741, "arrondissement": 75018, "art_et_essai": "NON", "adresse": "10 RUE THOLOZE", "nom_etablissement": "STUDIO 28", "coordonnees": [48.886142, 2.335342]}},{"type": "Feature", "geometry": {"type": "Point", "coordinates": [2.339834, 48.852353]}, "properties": {"ecrans": 4, "fauteuils": "816", "ndegauto": 8353, "arrondissement": 75006, "art_et_essai": "NON", "adresse": "124 BOULEVARD ST GERMAIN", "nom_etablissement": "UGC ODEON 2", "coordonnees": [48.852353, 2.339834]}},{"type": "Feature", "geometry": {"type": "Point", "coordinates": [2.306873, 48.869654]}, "properties": {"ecrans": 6, "fauteuils": "1 701", "ndegauto": 54, "arrondissement": 75008, "art_et_essai": "NON", "adresse": "27/33 AVENUE DES CHAMPS ELYSEES", "nom_etablissement": "GAUMONT CHAMPS ELYSEES MARIGNAN 3", "coordonnees": [48.869654, 2.306873]}},{"type": "Feature", "geometry": {"type": "Point", "coordinates": [2.342301, 48.847502]}, "properties": {"ecrans": 1, "fauteuils": "200", "ndegauto": 8391, "arrondissement": 75005, "art_et_essai": "A", "adresse": "13 RUE VICTOR COUSIN", "nom_etablissement": "LE CINEMA DU PANTHEON", "coordonnees": [48.847502, 2.342301]}},{"type": "Feature", "geometry": {"type": "Point", "coordinates": [2.39311, 48.848213]}, "properties": {"ecrans": 4, "fauteuils": "976", "ndegauto": 6212, "arrondissement": 75012, "art_et_essai": "NON", "adresse": "133 BOULEVARD DIDEROT", "nom_etablissement": "MK2 NATION 1", "coordonnees": [48.848213, 2.39311]}},{"type": "Feature", "geometry": {"type": "Point", "coordinates": [2.323941, 48.874832]}, "properties": {"ecrans": 3, "fauteuils": "331", "ndegauto": 2991, "arrondissement": 75008, "art_et_essai": "NON", "adresse": "44 RUE PASQUIER", "nom_etablissement": "SAINT LAZARE PASQUIER 1", "coordonnees": [48.874832, 2.323941]}},{"type": "Feature", "geometry": {"type": "Point", "coordinates": [2.325646, 48.84351]}, "properties": {"ecrans": 7, "fauteuils": "1 592", "ndegauto": 451, "arrondissement": 75006, "art_et_essai": "NON", "adresse": "83 BOULEVARDD DU MONTPARNASSE", "nom_etablissement": "UGC MONTPARNASSE 1", "coordonnees": [48.84351, 2.325646]}},{"type": "Feature", "geometry": {"type": "Point", "coordinates": [2.295345, 48.876113]}, "properties": {"ecrans": 1, "fauteuils": "161", "ndegauto": 9802, "arrondissement": 75017, "art_et_essai": "NON", "adresse": "14 RUE TROYON", "nom_etablissement": "CLUB DE L ETOILE", "coordonnees": [48.876113, 2.295345]}},{"type": "Feature", "geometry": {"type": "Point", "coordinates": [2.349632, 48.836817]}, "properties": {"ecrans": 2, "fauteuils": "329", "ndegauto": 8661, "arrondissement": 75013, "art_et_essai": "A", "adresse": "11 BOULEVARD PORT ROYAL", "nom_etablissement": "ESCURIAL 1", "coordonnees": [48.836817, 2.349632]}},{"type": "Feature", "geometry": {"type": "Point", "coordinates": [2.353775, 48.833574]}, "properties": {"ecrans": 5, "fauteuils": "1 162", "ndegauto": 8621, "arrondissement": 75013, "art_et_essai": "NON", "adresse": "58 AVENUE DES GOBELINS", "nom_etablissement": "GAUMONT GOBELINS 1", "coordonnees": [48.833574, 2.353775]}},{"type": "Feature", "geometry": {"type": "Point", "coordinates": [2.340503, 48.853442]}, "properties": {"ecrans": 3, "fauteuils": "510", "ndegauto": 751, "arrondissement": 75006, "art_et_essai": "A", "adresse": "3O RUE ST ANDRE DES ARTS", "nom_etablissement": "SAINT ANDRE DES ARTS 1", "coordonnees": [48.853442, 2.340503]}},{"type": "Feature", "geometry": {"type": "Point", "coordinates": [2.340797, 48.84824]}, "properties": {"ecrans": 3, "fauteuils": "334", "ndegauto": 741, "arrondissement": 75006, "art_et_essai": "A", "adresse": "67 69 RUE MONSIEUR LE PRINCE", "nom_etablissement": "LUXEMBOURG 1", "coordonnees": [48.84824, 2.340797]}},{"type": "Feature", "geometry": {"type": "Point", "coordinates": [2.369949, 48.85399]}, "properties": {"ecrans": 2, "fauteuils": "356", "ndegauto": 5852, "arrondissement": 75011, "art_et_essai": "A", "adresse": "4 BOULEVARD RICHARD LENOIR", "nom_etablissement": "MAJESTIC BASTILLE 1", "coordonnees": [48.85399, 2.369949]}},{"type": "Feature", "geometry": {"type": "Point", "coordinates": [2.316361, 48.851726]}, "properties": {"ecrans": 2, "fauteuils": "392", "ndegauto": 881, "arrondissement": 75007, "art_et_essai": "A", "adresse": "57 BIS RUE DE BABYLONE", "nom_etablissement": "LA PAGODE 1", "coordonnees": [48.851726, 2.316361]}},{"type": "Feature", "geometry": {"type": "Point", "coordinates": [2.343211, 48.849983]}, "properties": {"ecrans": 2, "fauteuils": "236", "ndegauto": 8422, "arrondissement": 75005, "art_et_essai": "A", "adresse": "51 RUE DES ECOLES", "nom_etablissement": "LE CHAMPO SALLE 1", "coordonnees": [48.849983, 2.343211]}},{"type": "Feature", "geometry": {"type": "Point", "coordinates": [2.326888, 48.884303]}, "properties": {"ecrans": 3, "fauteuils": "478", "ndegauto": 3211, "arrondissement": 75017, "art_et_essai": "A", "adresse": "7 AVENUE DE CLICHY", "nom_etablissement": "LE CINEMA DES CINEASTES 1", "coordonnees": [48.884303, 2.326888]}},{"type": "Feature", "geometry": {"type": "Point", "coordinates": [2.371493, 48.885073]}, "properties": {"ecrans": 6, "fauteuils": "992", "ndegauto": 4731, "arrondissement": 75019, "art_et_essai": "A", "adresse": "14 QUAI DE LA SEINE", "nom_etablissement": "MK2 QUAI DE SEINE 1", "coordonnees": [48.885073, 2.371493]}},{"type": "Feature", "geometry": {"type": "Point", "coordinates": [2.342788, 48.849504]}, "properties": {"ecrans": 2, "fauteuils": "164", "ndegauto": 8425, "arrondissement": 75005, "art_et_essai": "A", "adresse": "9 RUE CHAMPOLLION", "nom_etablissement": "QUARTIER LATIN 1", "coordonnees": [48.849504, 2.342788]}},{"type": "Feature", "geometry": {"type": "Point", "coordinates": [2.340132, 48.854455]}, "properties": {"ecrans": 2, "fauteuils": "245", "ndegauto": 883, "arrondissement": 75006, "art_et_essai": "A", "adresse": "4 RUE CHRISTINE", "nom_etablissement": "STUDIO CHRISTINE 1", "coordonnees": [48.854455, 2.340132]}},{"type": "Feature", "geometry": {"type": "Point", "coordinates": [2.328975, 48.842318]}, "properties": {"ecrans": 3, "fauteuils": "454", "ndegauto": 802, "arrondissement": 75006, "art_et_essai": "NON", "adresse": "103 BOULEVARD DU MONTPARNASSE", "nom_etablissement": "UGC ROTONDE 1", "coordonnees": [48.842318, 2.328975]}},{"type": "Feature", "geometry": {"type": "Point", "coordinates": [2.384409, 48.896314]}, "properties": {"ecrans": 1, "fauteuils": "400", "ndegauto": 4571, "arrondissement": 75019, "art_et_essai": "NON", "adresse": "26 AVENUE CORENTIN CARIOU", "nom_etablissement": "LA GEODE", "coordonnees": [48.896314, 2.384409]}},{"type": "Feature", "geometry": {"type": "Point", "coordinates": [2.353591, 48.858689]}, "properties": {"ecrans": 2, "fauteuils": "240", "ndegauto": 1791, "arrondissement": 75004, "art_et_essai": "A", "adresse": "20 RUE DU TEMPLE", "nom_etablissement": "LATINA 1", "coordonnees": [48.858689, 2.353591]}},{"type": "Feature", "geometry": {"type": "Point", "coordinates": [2.3486831, 48.8701164]}, "properties": {"ecrans": 1, "fauteuils": "100", "ndegauto": 1314, "arrondissement": 75002, "art_et_essai": "NON", "adresse": "14 RUE VILLE NEUVE 31 BOULEVARD BONNE NLL", "nom_etablissement": "BEVERLEY", "coordonnees": [48.8701164, 2.3486831]}},{"type": "Feature", "geometry": {"type": "Point", "coordinates": [2.355398, 48.871771]}, "properties": {"ecrans": 2, "fauteuils": "139", "ndegauto": 1393, "arrondissement": 75010, "art_et_essai": "A", "adresse": "39 BOULEVARD DE STRASBOURG", "nom_etablissement": "LE BRADY 1", "coordonnees": [48.871771, 2.355398]}},{"type": "Feature", "geometry": {"type": "Point", "coordinates": [2.330407, 48.844244]}, "properties": {"ecrans": 3, "fauteuils": "171", "ndegauto": 814, "arrondissement": 75006, "art_et_essai": "A", "adresse": "53 RUE NOTRE DAME DES CHAMPS", "nom_etablissement": "LUCERNAIRE FORUM GRANDE SAL", "coordonnees": [48.844244, 2.330407]}},{"type": "Feature", "geometry": {"type": "Point", "coordinates": [2.354241, 48.832888]}, "properties": {"ecrans": 7, "fauteuils": "1 148", "ndegauto": 8632, "arrondissement": 75013, "art_et_essai": "NON", "adresse": "66 BIS AVENUE DES GOBELINS", "nom_etablissement": "UGC GOBELINS 3", "coordonnees": [48.832888, 2.354241]}},{"type": "Feature", "geometry": {"type": "Point", "coordinates": [2.338995, 48.852138]}, "properties": {"ecrans": 4, "fauteuils": "684", "ndegauto": 8331, "arrondissement": 75006, "art_et_essai": "NON", "adresse": "99 BOULEVARD ST GERMAIN", "nom_etablissement": "UGC DANTON 1", "coordonnees": [48.852138, 2.338995]}},{"type": "Feature", "geometry": {"type": "Point", "coordinates": [2.371855, 48.847502]}, "properties": {"ecrans": 7, "fauteuils": "1 274", "ndegauto": 6531, "arrondissement": 75012, "art_et_essai": "NON", "adresse": "12 RUE DE LYON", "nom_etablissement": "UGC LYON BASTILLE 3", "coordonnees": [48.847502, 2.371855]}},{"type": "Feature", "geometry": {"type": "Point", "coordinates": [2.32791, 48.87561]}, "properties": {"ecrans": 5, "fauteuils": "501", "ndegauto": 2982, "arrondissement": 75009, "art_et_essai": "A", "adresse": "101 RUE ST LAZARE", "nom_etablissement": "CAUMARTIN 4 (EX CINEVOG 4 )", "coordonnees": [48.87561, 2.32791]}},{"type": "Feature", "geometry": {"type": "Point", "coordinates": [2.35466, 48.870455]}, "properties": {"ecrans": 2, "fauteuils": "204", "ndegauto": 1392, "arrondissement": 75010, "art_et_essai": "A", "adresse": "17 BOULEVARD DE STRASBOURG", "nom_etablissement": "L'ARCHIPEL 1", "coordonnees": [48.870455, 2.35466]}},{"type": "Feature", "geometry": {"type": "Point", "coordinates": [2.342788, 48.852188]}, "properties": {"ecrans": 4, "fauteuils": "690", "ndegauto": 721, "arrondissement": 75006, "art_et_essai": "A", "adresse": "7 RUE HAUTEFEUILLE", "nom_etablissement": "MK2 HAUTEFEUILLE 1", "coordonnees": [48.852188, 2.342788]}},{"type": "Feature", "geometry": {"type": "Point", "coordinates": [2.327463, 48.828166]}, "properties": {"ecrans": 7, "fauteuils": "1 435", "ndegauto": 8132, "arrondissement": 75014, "art_et_essai": "NON", "adresse": "73 AVENUE DU GENERAL LECLERC", "nom_etablissement": "GAUMONT ALESIA 1", "coordonnees": [48.828166, 2.327463]}},{"type": "Feature", "geometry": {"type": "Point", "coordinates": [2.330525, 48.842813]}, "properties": {"ecrans": 3, "fauteuils": "284", "ndegauto": 801, "arrondissement": 75006, "art_et_essai": "A", "adresse": "11 RUE JULES CHAPLAIN", "nom_etablissement": "MK2 PARNASSE 1", "coordonnees": [48.842813, 2.330525]}},{"type": "Feature", "geometry": {"type": "Point", "coordinates": [2.333052, 48.85467]}, "properties": {"ecrans": 1, "fauteuils": "252", "ndegauto": 891, "arrondissement": 75006, "art_et_essai": "A", "adresse": "22 RUE GUILLAUME APOLLINAIRE", "nom_etablissement": "ST GERMAIN DES PRES", "coordonnees": [48.85467, 2.333052]}},{"type": "Feature", "geometry": {"type": "Point", "coordinates": [2.299525, 48.872431]}, "properties": {"ecrans": 3, "fauteuils": "590", "ndegauto": 35, "arrondissement": 75008, "art_et_essai": "A", "adresse": "1 RUE BALZAC", "nom_etablissement": "BALZAC 1", "coordonnees": [48.872431, 2.299525]}},{"type": "Feature", "geometry": {"type": "Point", "coordinates": [2.31652, 48.83393]}, "properties": {"ecrans": 3, "fauteuils": "250", "ndegauto": 483, "arrondissement": 75014, "art_et_essai": "A", "adresse": "7 ET 9 RUE FRANCIS DE PRESSENSE", "nom_etablissement": "ENTREPOT 1", "coordonnees": [48.83393, 2.31652]}},{"type": "Feature", "geometry": {"type": "Point", "coordinates": [2.324424, 48.843074]}, "properties": {"ecrans": 15, "fauteuils": "2 876", "ndegauto": 481, "arrondissement": 75014, "art_et_essai": "NON", "adresse": "3 RUE D'ODESSA", "nom_etablissement": "GAUMONT PARNASSE 1", "coordonnees": [48.843074, 2.324424]}},{"type": "Feature", "geometry": {"type": "Point", "coordinates": [2.38666, 48.833007]}, "properties": {"ecrans": 18, "fauteuils": "4 440", "ndegauto": 6611, "arrondissement": 75012, "art_et_essai": "NON", "adresse": "2 COUR SAINT-EMILION", "nom_etablissement": "UGC CINE CITE BERCY 10", "coordonnees": [48.833007, 2.38666]}},{"type": "Feature", "geometry": {"type": "Point", "coordinates": [2.298558, 48.843204]}, "properties": {"ecrans": 3, "fauteuils": "365", "ndegauto": 7231, "arrondissement": 75015, "art_et_essai": "NON", "adresse": "6 RUE PECLET", "nom_etablissement": "CHAPLIN SAINT LAMBERT 1", "coordonnees": [48.843204, 2.298558]}},{"type": "Feature", "geometry": {"type": "Point", "coordinates": [2.353269, 48.841154]}, "properties": {"ecrans": 2, "fauteuils": "188", "ndegauto": 8522, "arrondissement": 75005, "art_et_essai": "A", "adresse": "21 RUE CLEF 34 RUE DAUBENTON", "nom_etablissement": "LA CLEF 1", "coordonnees": [48.841154, 2.353269]}},{"type": "Feature", "geometry": {"type": "Point", "coordinates": [2.335302, 48.871332]}, "properties": {"ecrans": 4, "fauteuils": "760", "ndegauto": 204, "arrondissement": 75009, "art_et_essai": "NON", "adresse": "32 BOULEVARDD DES ITALIENS", "nom_etablissement": "UGC OPERA 1", "coordonnees": [48.871332, 2.335302]}},{"type": "Feature", "geometry": {"type": "Point", "coordinates": [2.276254, 48.83039]}, "properties": {"ecrans": 14, "fauteuils": "2 583", "ndegauto": 7491, "arrondissement": 75015, "art_et_essai": "NON", "adresse": "8/16 RUE DU COLONEL PIERRE AVIA", "nom_etablissement": "GAUMONT AQUABOULEVARD 1", "coordonnees": [48.83039, 2.276254]}},{"type": "Feature", "geometry": {"type": "Point", "coordinates": [2.334338, 48.870632]}, "properties": {"ecrans": 6, "fauteuils": "1 138", "ndegauto": 321, "arrondissement": 75002, "art_et_essai": "NON", "adresse": "32 RUE LOUIS LEGRAND", "nom_etablissement": "GAUMONT OPERA PREMIER 1", "coordonnees": [48.870632, 2.334338]}},{"type": "Feature", "geometry": {"type": "Point", "coordinates": [2.347254, 48.870623]}, "properties": {"ecrans": 7, "fauteuils": "4 274", "ndegauto": 311, "arrondissement": 75002, "art_et_essai": "NON", "adresse": "1 A 5 BOULEVARD POISSONNIERE", "nom_etablissement": "GRAND REX", "coordonnees": [48.870623, 2.347254]}},{"type": "Feature", "geometry": {"type": "Point", "coordinates": [2.374123, 48.885067]}, "properties": {"ecrans": 6, "fauteuils": "1 108", "ndegauto": 9900, "arrondissement": 75019, "art_et_essai": "NON", "adresse": "5/19 QUAI DE LA LOIRE", "nom_etablissement": "MK2 QUAI DE LOIRE 1", "coordonnees": [48.885067, 2.374123]}},{"type": "Feature", "geometry": {"type": "Point", "coordinates": [2.328034, 48.883938]}, "properties": {"ecrans": 12, "fauteuils": "2 139", "ndegauto": 3222, "arrondissement": 75018, "art_et_essai": "NON", "adresse": "132 -140 BOULEVARD DE CLICHY", "nom_etablissement": "PATHE WEPLER 8", "coordonnees": [48.883938, 2.328034]}},{"type": "Feature", "geometry": {"type": "Point", "coordinates": [2.342836, 48.849591]}, "properties": {"ecrans": 3, "fauteuils": "372", "ndegauto": 8513, "arrondissement": 75005, "art_et_essai": "A", "adresse": "7 RUE CHAMPOLLION", "nom_etablissement": "REFLET MEDICIS 1", "coordonnees": [48.849591, 2.342836]}},{"type": "Feature", "geometry": {"type": "Point", "coordinates": [2.330976, 48.833879]}, "properties": {"ecrans": 1, "fauteuils": "133", "ndegauto": 8161, "arrondissement": 75014, "art_et_essai": "NON", "adresse": "24 PLACE DENFERT ROCHEREAU", "nom_etablissement": "CHAPLIN DENFERT", "coordonnees": [48.833879, 2.330976]}},{"type": "Feature", "geometry": {"type": "Point", "coordinates": [2.33361, 48.871044]}, "properties": {"ecrans": 7, "fauteuils": "2 169", "ndegauto": 201, "arrondissement": 75009, "art_et_essai": "NON", "adresse": "2/4 BOULEVARD DES CAPUCINES", "nom_etablissement": "GAUMONT OPERA CAPUCINES 2", "coordonnees": [48.871044, 2.33361]}},{"type": "Feature", "geometry": {"type": "Point", "coordinates": [2.282104, 48.858204]}, "properties": {"ecrans": 3, "fauteuils": "637", "ndegauto": 2251, "arrondissement": 75016, "art_et_essai": "NON", "adresse": "18 - 20 RUE DE PASSY", "nom_etablissement": "MAJESTIC PASSY 1", "coordonnees": [48.858204, 2.282104]}},{"type": "Feature", "geometry": {"type": "Point", "coordinates": [2.338266, 48.852437]}, "properties": {"ecrans": 5, "fauteuils": "815", "ndegauto": 731, "arrondissement": 75006, "art_et_essai": "NON", "adresse": "113 BOULEVARD ST GERMAIN", "nom_etablissement": "MK2 ODEON 2", "coordonnees": [48.852437, 2.338266]}},{"type": "Feature", "geometry": {"type": "Point", "coordinates": [2.342044, 48.842733]}, "properties": {"ecrans": 1, "fauteuils": "122", "ndegauto": 8451, "arrondissement": 75005, "art_et_essai": "A", "adresse": "10 RUE DES URSULINES", "nom_etablissement": "STUDIO DES URSULINES", "coordonnees": [48.842733, 2.342044]}},{"type": "Feature", "geometry": {"type": "Point", "coordinates": [2.324925, 48.843752]}, "properties": {"ecrans": 2, "fauteuils": "1 020", "ndegauto": 803, "arrondissement": 75006, "art_et_essai": "NON", "adresse": "73 BOULEVARD DU MONTPARNASSE", "nom_etablissement": "BRETAGNE 1", "coordonnees": [48.843752, 2.324925]}},{"type": "Feature", "geometry": {"type": "Point", "coordinates": [2.352122, 48.847537]}, "properties": {"ecrans": 2, "fauteuils": "346", "ndegauto": 8531, "arrondissement": 75005, "art_et_essai": "A", "adresse": "5 RUE DES ECOLES", "nom_etablissement": "LE GRAND ACTION 1", "coordonnees": [48.847537, 2.352122]}},{"type": "Feature", "geometry": {"type": "Point", "coordinates": [2.324596, 48.841914]}, "properties": {"ecrans": 4, "fauteuils": "356", "ndegauto": 7711, "arrondissement": 75014, "art_et_essai": "NON", "adresse": "18 RUE D'ODESSA", "nom_etablissement": "MONTPARNOS 1", "coordonnees": [48.841914, 2.324596]}},{"type": "Feature", "geometry": {"type": "Point", "coordinates": [2.346716, 48.859785]}, "properties": {"ecrans": 19, "fauteuils": "3 259", "ndegauto": 1681, "arrondissement": 75001, "art_et_essai": "NON", "adresse": "FORUM DES HALLES", "nom_etablissement": "UGC CINE CITE LES HALLES 1", "coordonnees": [48.859785, 2.346716]}},{"type": "Feature", "geometry": {"type": "Point", "coordinates": [2.369381, 48.854674]}, "properties": {"ecrans": 4, "fauteuils": "468", "ndegauto": 5861, "arrondissement": 75011, "art_et_essai": "A", "adresse": "3 BOULEVARD RICHARD LENOIR 4/6 BOULEVARD BEAUMARCHAIS", "nom_etablissement": "MK2 BASTILLE 1", "coordonnees": [48.854674, 2.369381]}},{"type": "Feature", "geometry": {"type": "Point", "coordinates": [2.352217, 48.861555]}, "properties": {"ecrans": 6, "fauteuils": "558", "ndegauto": 531, "arrondissement": 75003, "art_et_essai": "A", "adresse": "50 RUE RAMBUTEAU", "nom_etablissement": "MK2 BEAUBOURG 1", "coordonnees": [48.861555, 2.352217]}},{"type": "Feature", "geometry": {"type": "Point", "coordinates": [2.344886, 48.871363]}, "properties": {"ecrans": 1, "fauteuils": "591", "ndegauto": 301, "arrondissement": 75009, "art_et_essai": "NON", "adresse": "24 BOULEVARD POISSONNIERE", "nom_etablissement": "MAX LINDER", "coordonnees": [48.871363, 2.344886]}},{"type": "Feature", "geometry": {"type": "Point", "coordinates": [2.300938, 48.872265]}, "properties": {"ecrans": 4, "fauteuils": "1 610", "ndegauto": 31, "arrondissement": 75008, "art_et_essai": "NON", "adresse": "116 AVENUE DES CHAMPS ELYSEES", "nom_etablissement": "UGC NORMANDIE 2", "coordonnees": [48.872265, 2.300938]}},{"type": "Feature", "geometry": {"type": "Point", "coordinates": [2.392436, 48.888947]}, "properties": {"ecrans": 1, "fauteuils": "287", "ndegauto": 4713, "arrondissement": 75019, "art_et_essai": "NON", "adresse": "211 AVENUE JEAN JAURES", "nom_etablissement": "BORIS VIAN", "coordonnees": [48.888947, 2.392436]}},{"type": "Feature", "geometry": {"type": "Point", "coordinates": [2.347857, 48.861661]}, "properties": {"ecrans": 7, "fauteuils": "696", "ndegauto": 1671, "arrondissement": 75001, "art_et_essai": "NON", "adresse": "1 RUE DE L'ORIENT-EXPRESS", "nom_etablissement": "FORUM ORIENT EXPRESS 1", "coordonnees": [48.861661, 2.347857]}},{"type": "Feature", "geometry": {"type": "Point", "coordinates": [2.376757, 48.898991]}, "properties": {"ecrans": 14, "fauteuils": "2 790", "ndegauto": 9906, "arrondissement": 75019, "art_et_essai": "NON", "adresse": "166 BOULEVARD MACDONALD", "nom_etablissement": "UGC CINE CITE PARIS 19 (1)", "coordonnees": [48.898991, 2.376757]}},{"type": "Feature", "geometry": {"type": "Point", "coordinates": [2.283381, 48.879964]}, "properties": {"ecrans": 4, "fauteuils": "764", "ndegauto": 612, "arrondissement": 75017, "art_et_essai": "NON", "adresse": "PALAIS CONGRES PLACE PORTE MAILLOT", "nom_etablissement": "UGC MAILLOT 3", "coordonnees": [48.879964, 2.283381]}},{"type": "Feature", "geometry": {"type": "Point", "coordinates": [2.409433, 48.877995]}, "properties": {"ecrans": 7, "fauteuils": "1 480", "ndegauto": 9950, "arrondissement": 75020, "art_et_essai": "NON", "adresse": "PLACE DU MAQUIS DU VERCORS", "nom_etablissement": "ETOILE LILAS 1", "coordonnees": [48.877995, 2.409433]}},{"type": "Feature", "geometry": {"type": "Point", "coordinates": [2.349853, 48.883487]}, "properties": {"ecrans": 3, "fauteuils": "556", "ndegauto": 9452, "arrondissement": 75010, "art_et_essai": "NON", "adresse": "170 BOULEVARD DE MAGENTA", "nom_etablissement": "LE LOUXOR SALLE 1 YOUSSEF CHAHINE", "coordonnees": [48.883487, 2.349853]}},{"type": "Feature", "geometry": {"type": "Point", "coordinates": [2.327625, 48.842443]}, "properties": {"ecrans": 7, "fauteuils": "842", "ndegauto": 821, "arrondissement": 75014, "art_et_essai": "A", "adresse": "98 BOULEVARD DU MONTPARNASSE", "nom_etablissement": "PARNASSIEN 1", "coordonnees": [48.842443, 2.327625]}},{"type": "Feature", "geometry": {"type": "Point", "coordinates": [2.34958, 48.841535]}, "properties": {"ecrans": 2, "fauteuils": "140", "ndegauto": 8514, "arrondissement": 75005, "art_et_essai": "NON", "adresse": "100 RUE MOUFFETARD", "nom_etablissement": "EPEE DE BOIS 1", "coordonnees": [48.841535, 2.34958]}},{"type": "Feature", "geometry": {"type": "Point", "coordinates": [2.294478, 48.875539]}, "properties": {"ecrans": 1, "fauteuils": "137", "ndegauto": 2543, "arrondissement": 75017, "art_et_essai": "A", "adresse": "5/7 AV MAC MAHON", "nom_etablissement": "MAC MAHON", "coordonnees": [48.875539, 2.294478]}}]}